[{"fecha":"2024-09-27","local_id":"40","fk_region":"6","fk_comuna":"62","fk_localidad":"435","local_nombre":"EL MELON","comuna_nombre":"NOGALES","localidad_nombre":"EL MELON","local_direccion":"ISABEL BROWN N\u00b0 123","funcionamiento_hora_apertura":"12:00:00","funcionamiento_hora_cierre":"21:00:00","local_telefono":"+56034 - 2591629","local_lat":"-32.6892394828406","local_lng":"-71.2148068285658","funcionamiento_dia":"viernes"},{"fecha":"2024-09-27","local_id":"59","fk_region":"6","fk_comuna":"70","fk_localidad":"54","local_nombre":"AHUMADA","comuna_nombre":"QUILPUE","localidad_nombre":"LOS PINOS","local_direccion":"LAS BARRANCAS 2491 L 3C Y 4D","funcionamiento_hora_apertura":"09:00:00","funcionamiento_hora_cierre":"21:00:00","local_telefono":"+56232740640","local_lat":"-33.0661975068523","local_lng":"-71.4228941507292","funcionamiento_dia":"viernes"},{"fecha":"2024-07-01","local_id":"81","fk_region":"6","fk_comuna":"80","fk_localidad":"41","local_nombre":"AHUMADA","comuna_nombre":"VI\u00d1A DEL MAR","localidad_nombre":"VI\u00d1A DEL MAR URGENCIA","local_direccion":"AV. LIBERTAD N\u00b0 335","funcionamiento_hora_apertura":"00:00:00","funcionamiento_hora_cierre":"23:59:00","local_telefono":"+560226313145","local_lat":"-33.0189172526154","local_lng":"-71.5510733225955","funcionamiento_dia":"jueves"},{"fecha":"2024-07-01","local_id":"94","fk_region":"6","fk_comuna":"80","fk_localidad":"41","local_nombre":"CRUZ VERDE","comuna_nombre":"VI\u00d1A DEL MAR","localidad_nombre":"VI\u00d1A DEL MAR URGENCIA","local_direccion":"AV. VALPARAISO N\u00b0 404","funcionamiento_hora_apertura":"00:00:00","funcionamiento_hora_cierre":"23:59:00","local_telefono":"+56322714044","local_lat":"-33.024369299178","local_lng":"-71.5569460874684","funcionamiento_dia":"jueves"},{"fecha":"2024-09-27","local_id":"174","fk_region":"6","fk_comuna":"78","fk_localidad":"2","local_nombre":"FAMIFARMA","comuna_nombre":"VALPARAISO","localidad_nombre":"PLAN VALPARAISO","local_direccion":"SERRANO N\u00ba 301","funcionamiento_hora_apertura":"09:00:00","funcionamiento_hora_cierre":"23:00:00","local_telefono":"+56322210871","local_lat":"-33.0367735067177","local_lng":"-71.6303326058118","funcionamiento_dia":"viernes"},{"fecha":"2024-07-01","local_id":"186","fk_region":"6","fk_comuna":"78","fk_localidad":"1","local_nombre":"CRUZ VERDE","comuna_nombre":"VALPARAISO","localidad_nombre":"VALPARAISO URGENCIA","local_direccion":"AV. PEDRO MONTT 1902","funcionamiento_hora_apertura":"00:00:00","funcionamiento_hora_cierre":"23:59:00","local_telefono":"+56322745048","local_lat":"-33.0470628068749","local_lng":"-71.6169778733873","funcionamiento_dia":"jueves"},{"fecha":"2024-09-27","local_id":"199","fk_region":"6","fk_comuna":"51","fk_localidad":"9","local_nombre":"CRUZ VERDE","comuna_nombre":"EL QUISCO","localidad_nombre":"EL QUISCO","local_direccion":"J.N. AGUIRRE N\u00ba 017","funcionamiento_hora_apertura":"09:00:00","funcionamiento_hora_cierre":"23:00:00","local_telefono":"+562471987","local_lat":"-33.3972727161571","local_lng":"-71.6944403358581","funcionamiento_dia":"viernes"},{"fecha":"2024-09-27","local_id":"203","fk_region":"6","fk_comuna":"52","fk_localidad":"50","local_nombre":"SAN ENRIQUE","comuna_nombre":"EL TABO","localidad_nombre":"El TABO","local_direccion":"SAN MARCOS N\u00ba793 LOCAL 01","funcionamiento_hora_apertura":"09:00:00","funcionamiento_hora_cierre":"21:00:00","local_telefono":"+562469037","local_lat":"-33.4552541449701","local_lng":"-71.6673220648659","funcionamiento_dia":"viernes"},{"fecha":"2024-09-27","local_id":"208","fk_region":"6","fk_comuna":"48","fk_localidad":"5","local_nombre":"SAN SEBASTIAN","comuna_nombre":"CARTAGENA","localidad_nombre":"CARTAGENA","local_direccion":"CASANOVA N\u00ba 328","funcionamiento_hora_apertura":"09:00:00","funcionamiento_hora_cierre":"23:00:00","local_telefono":"+562451357","local_lat":"-33.547220627122","local_lng":"-71.6031519364708","funcionamiento_dia":"viernes"},{"fecha":"2024-09-27","local_id":"220","fk_region":"6","fk_comuna":"73","fk_localidad":"19","local_nombre":"SAN ENRIQUE","comuna_nombre":"SAN ANTONIO","localidad_nombre":"SAN ANTONIO","local_direccion":"AV. CENTENARIO N\u00b0 67","funcionamiento_hora_apertura":"09:00:00","funcionamiento_hora_cierre":"08:59:00","local_telefono":"+56352216791","local_lat":"-33.5808947818732","local_lng":"-71.612144987547","funcionamiento_dia":"viernes"},{"fecha":"2024-09-27","local_id":"249","fk_region":"6","fk_comuna":"49","fk_localidad":"7","local_nombre":"FARMAVIDA","comuna_nombre":"CATEMU","localidad_nombre":"CATEMU","local_direccion":"BORJA GARCIA HUIDOBRO N\u00b0 051","funcionamiento_hora_apertura":"09:00:00","funcionamiento_hora_cierre":"21:00:00","local_telefono":"+56342631035","local_lat":"-32.7780107476414","local_lng":"-70.9623902381342","funcionamiento_dia":"viernes"},{"fecha":"2024-09-27","local_id":"275","fk_region":"6","fk_comuna":"68","fk_localidad":"31","local_nombre":"FARMAVIDA","comuna_nombre":"PUTAENDO","localidad_nombre":"PUTAENDO","local_direccion":"COMERCIO N\u00b0 478","funcionamiento_hora_apertura":"09:00:00","funcionamiento_hora_cierre":"21:00:00","local_telefono":"+5634+56996490798","local_lat":"-32.6268892307614","local_lng":"-70.7166072197359","funcionamiento_dia":"viernes"},{"fecha":"2024-09-27","local_id":"278","fk_region":"6","fk_comuna":"75","fk_localidad":"37","local_nombre":"CRUZ VERDE","comuna_nombre":"SAN FELIPE","localidad_nombre":"SAN FELIPE","local_direccion":"ARTURO PRAT N\u00b0 199 - B","funcionamiento_hora_apertura":"09:00:00","funcionamiento_hora_cierre":"08:59:00","local_telefono":"+562510068","local_lat":"-32.7499960571596","local_lng":"-70.7254541910513","funcionamiento_dia":"viernes"},{"fecha":"2024-09-27","local_id":"287","fk_region":"6","fk_comuna":"76","fk_localidad":"38","local_nombre":"FARMAVIDA","comuna_nombre":"SANTA MARIA","localidad_nombre":"SANTA MARIA","local_direccion":"TRES CARRERA S\/N ESQUINA O'HIGGINS","funcionamiento_hora_apertura":"09:30:00","funcionamiento_hora_cierre":"20:00:00","local_telefono":"+56+56996490798","local_lat":"-32.7485710741327","local_lng":"-70.6566197761406","funcionamiento_dia":"viernes"},{"fecha":"2024-09-27","local_id":"289","fk_region":"6","fk_comuna":"81","fk_localidad":"42","local_nombre":"CRUZ VERDE","comuna_nombre":"ZAPALLAR","localidad_nombre":"ZAPALLAR","local_direccion":"MOISES CHACON N\u00b0 140","funcionamiento_hora_apertura":"09:00:00","funcionamiento_hora_cierre":"19:00:00","local_telefono":"+562741991","local_lat":"-32.5543541382821","local_lng":"-71.455588123027","funcionamiento_dia":"viernes"},{"fecha":"2024-09-27","local_id":"290","fk_region":"6","fk_comuna":"81","fk_localidad":"15","local_nombre":"FARMARKET","comuna_nombre":"ZAPALLAR","localidad_nombre":"LAGUNA DE ZAPALLAR","local_direccion":"AV. CARLOS LEON BRICE\u00d1O N\u00b0 498","funcionamiento_hora_apertura":"10:30:00","funcionamiento_hora_cierre":"19:30:00","local_telefono":"+56967275116","local_lat":"-32.6297105669351","local_lng":"-71.4227773600892","funcionamiento_dia":"viernes"},{"fecha":"2024-09-27","local_id":"296","fk_region":"6","fk_comuna":"55","fk_localidad":"52","local_nombre":"SALCOBRAND","comuna_nombre":"JUAN FERNANDEZ","localidad_nombre":"JUAN FERNANDEZ","local_direccion":"MANZANA 16, SITIO 7","funcionamiento_hora_apertura":"09:00:00","funcionamiento_hora_cierre":"17:00:00","local_telefono":"+56224223300 anexo 5499","local_lat":"-33.635261","local_lng":"-78.831572","funcionamiento_dia":"viernes"},{"fecha":"2024-09-27","local_id":"300","fk_region":"6","fk_comuna":"79","fk_localidad":"40","local_nombre":"NATURAL LIFE","comuna_nombre":"VILLA ALEMANA","localidad_nombre":"VILLA ALEMANA","local_direccion":"BLANCO 47 LOCAL 3","funcionamiento_hora_apertura":"09:00:00","funcionamiento_hora_cierre":"08:59:00","local_telefono":"+562915188","local_lat":"-33.0437244911632","local_lng":"-71.3723870581823","funcionamiento_dia":"viernes"},{"fecha":"2024-09-27","local_id":"311","fk_region":"6","fk_comuna":"50","fk_localidad":"8","local_nombre":"AHUMADA","comuna_nombre":"CONCON","localidad_nombre":"CONCON","local_direccion":"MANANTIALES 945 LOCAL 104","funcionamiento_hora_apertura":"09:00:00","funcionamiento_hora_cierre":"08:59:00","local_telefono":"+5626313224","local_lat":"-32.92986983756902","local_lng":"-71.51728002673937","funcionamiento_dia":"viernes"},{"fecha":"2024-09-27","local_id":"315","fk_region":"2","fk_comuna":"9","fk_localidad":"65","local_nombre":"FARMACIA AHUMADA","comuna_nombre":"IQUIQUE","localidad_nombre":"IQUIQUE","local_direccion":"TARAPACA 599","funcionamiento_hora_apertura":"08:00:00","funcionamiento_hora_cierre":"23:59:00","local_telefono":"+560226313267","local_lat":"-20.2138705","local_lng":"-70.1492774","funcionamiento_dia":"viernes"},{"fecha":"2024-09-27","local_id":"321","fk_region":"2","fk_comuna":"5","fk_localidad":"61","local_nombre":"FARMACIA CRUZ DEL SUR","comuna_nombre":"ALTO HOSPICIO","localidad_nombre":"ALTO HOSPICIO","local_direccion":"AVENIDA LOS C\u00d3NDORES 3824","funcionamiento_hora_apertura":"08:00:00","funcionamiento_hora_cierre":"23:59:00","local_telefono":"+56572323097","local_lat":"-20.27439531605","local_lng":"-70.096399784","funcionamiento_dia":"viernes"},{"fecha":"2024-07-01","local_id":"335","fk_region":"2","fk_comuna":"9","fk_localidad":"65","local_nombre":"FARMACIA CRUZ VERDE ","comuna_nombre":"IQUIQUE","localidad_nombre":"IQUIQUE","local_direccion":"TARAPACA 496","funcionamiento_hora_apertura":"00:00:00","funcionamiento_hora_cierre":"23:59:00","local_telefono":"+562425641","local_lat":"-20.213904","local_lng":"-70.150348","funcionamiento_dia":"jueves"},{"fecha":"2024-09-27","local_id":"508","fk_region":"6","fk_comuna":"78","fk_localidad":"29","local_nombre":"LA SALUD","comuna_nombre":"VALPARAISO","localidad_nombre":"PLAYA ANCHA","local_direccion":"AVENIDA LUIS GUEVARA ORTUZAR N\u00ba 2002 LOCAL N\u00ba 6","funcionamiento_hora_apertura":"10:00:00","funcionamiento_hora_cierre":"18:00:00","local_telefono":"+56323614582","local_lat":"-33.0439218191614","local_lng":"-71.6466034446998","funcionamiento_dia":"viernes"},{"fecha":"2024-09-27","local_id":"766","fk_region":"7","fk_comuna":"84","fk_localidad":"103","local_nombre":"CALERA DE TANGO","comuna_nombre":"CALERA DE TANGO","localidad_nombre":"CALERA DE TANGO","local_direccion":"AVENIDA CALERA DE TANGO 593-B","funcionamiento_hora_apertura":"09:00:00","funcionamiento_hora_cierre":"21:00:00","local_telefono":"28551067","local_lat":"-33.6295697","local_lng":"-70.7643074","funcionamiento_dia":"viernes"},{"fecha":"2024-09-27","local_id":"778","fk_region":"7","fk_comuna":"85","fk_localidad":"104","local_nombre":"VILLA MEXICO","comuna_nombre":"CERRILLOS","localidad_nombre":"CERRILLOS","local_direccion":"5 DE ABRIL 1094","funcionamiento_hora_apertura":"09:00:00","funcionamiento_hora_cierre":"21:00:00","local_telefono":"+560225575031","local_lat":"-33.509773","local_lng":"-70.731929","funcionamiento_dia":"viernes"},{"fecha":"2024-09-27","local_id":"789","fk_region":"7","fk_comuna":"86","fk_localidad":"105","local_nombre":"SILVA ","comuna_nombre":"CERRO NAVIA","localidad_nombre":"CERRO NAVIA","local_direccion":"SALVADOR GUTIERREZ 7990 L-2","funcionamiento_hora_apertura":"08:00:00","funcionamiento_hora_cierre":"07:59:00","local_telefono":"+560226400664","local_lat":"-33.416828","local_lng":"-70.75024","funcionamiento_dia":"viernes"},{"fecha":"2024-07-01","local_id":"796","fk_region":"7","fk_comuna":"87","fk_localidad":"106","local_nombre":"AHUMADA","comuna_nombre":"COLINA","localidad_nombre":"COLINA","local_direccion":"CAMINO CHICUREO ESQUINA LOS INGLESES. LOCAL 13.","funcionamiento_hora_apertura":"00:00:00","funcionamiento_hora_cierre":"23:59:00","local_telefono":"","local_lat":"-33.285167","local_lng":"-70.680634","funcionamiento_dia":"jueves"},{"fecha":"2024-09-27","local_id":"826","fk_region":"7","fk_comuna":"88","fk_localidad":"107","local_nombre":"TEATINOS","comuna_nombre":"CONCHALI","localidad_nombre":"CONCHALI","local_direccion":"AVENID INDEPENDENCIA 3187 - B","funcionamiento_hora_apertura":"08:00:00","funcionamiento_hora_cierre":"07:59:00","local_telefono":"+560227287002","local_lat":"-33.397903","local_lng":"-70.66924","funcionamiento_dia":"viernes"},{"fecha":"2024-09-27","local_id":"832","fk_region":"7","fk_comuna":"90","fk_localidad":"109","local_nombre":"LOS MAQUIS","comuna_nombre":"EL BOSQUE","localidad_nombre":"EL BOSQUE","local_direccion":"AV. PADRE HURTADO 10904","funcionamiento_hora_apertura":"08:00:00","funcionamiento_hora_cierre":"07:59:00","local_telefono":"+5625279909","local_lat":"-33.561121","local_lng":"-70.670763","funcionamiento_dia":"viernes"},{"fecha":"2024-07-01","local_id":"905","fk_region":"7","fk_comuna":"94","fk_localidad":"113","local_nombre":"URGENCIA - CRUZ VERDE","comuna_nombre":"INDEPENDENCIA","localidad_nombre":"INDEPENDENCIA","local_direccion":"INDEPENDENCIA 2127. INTERIOR MONTSERRAT","funcionamiento_hora_apertura":"00:00:00","funcionamiento_hora_cierre":"23:59:00","local_telefono":"+5627777528","local_lat":"-33.40684316462889","local_lng":"-70.6601390624962","funcionamiento_dia":"jueves"},{"fecha":"2024-09-27","local_id":"923","fk_region":"7","fk_comuna":"95","fk_localidad":"114","local_nombre":"FARMA-MARKET","comuna_nombre":"ISLA DE MAIPO","localidad_nombre":"ISLA DE MAIPO","local_direccion":"GALVEZ 06","funcionamiento_hora_apertura":"09:00:00","funcionamiento_hora_cierre":"21:00:00","local_telefono":"+560228190180","local_lat":"-33.756367","local_lng":"-70.896568","funcionamiento_dia":"viernes"},{"fecha":"2024-07-01","local_id":"928","fk_region":"7","fk_comuna":"96","fk_localidad":"115","local_nombre":"URGENCIA - AHUMADA","comuna_nombre":"LA CISTERNA","localidad_nombre":"LA CISTERNA","local_direccion":"FERNANDEZ ALBANO 27","funcionamiento_hora_apertura":"00:00:00","funcionamiento_hora_cierre":"23:59:00","local_telefono":"+5626313297","local_lat":"-33.5237665723986","local_lng":"-70.66011239748383","funcionamiento_dia":"jueves"},{"fecha":"2024-07-01","local_id":"954","fk_region":"7","fk_comuna":"97","fk_localidad":"510","local_nombre":"URGENCIA - AHUMADA","comuna_nombre":"LA FLORIDA","localidad_nombre":"LA FLORIDA URGENCIA","local_direccion":"LA FLORIDA 9497","funcionamiento_hora_apertura":"00:00:00","funcionamiento_hora_cierre":"23:59:00","local_telefono":"+560226313292","local_lat":"-33.543243","local_lng":"-70.570288","funcionamiento_dia":"jueves"},{"fecha":"2024-07-01","local_id":"968","fk_region":"7","fk_comuna":"97","fk_localidad":"510","local_nombre":"URGENCIA - CRUZ VERDE","comuna_nombre":"LA FLORIDA","localidad_nombre":"LA FLORIDA URGENCIA","local_direccion":"AV. AMERICO VESPUCIO 7500","funcionamiento_hora_apertura":"00:00:00","funcionamiento_hora_cierre":"23:59:00","local_telefono":"+5622862541","local_lat":"-33.522077","local_lng":"-70.597461","funcionamiento_dia":"jueves"},{"fecha":"2024-07-01","local_id":"970","fk_region":"7","fk_comuna":"97","fk_localidad":"510","local_nombre":"URGENCIA - CRUZ VERDE","comuna_nombre":"LA FLORIDA","localidad_nombre":"LA FLORIDA URGENCIA","local_direccion":"LA FLORIDA 9385. COSTADO SANTA ISABEL","funcionamiento_hora_apertura":"00:00:00","funcionamiento_hora_cierre":"23:59:00","local_telefono":"+5622971277","local_lat":"-33.539997","local_lng":"-70.571672","funcionamiento_dia":"jueves"},{"fecha":"2024-07-01","local_id":"1043","fk_region":"7","fk_comuna":"100","fk_localidad":"493","local_nombre":"URGENCIA - AHUMADA ","comuna_nombre":"LA REINA","localidad_nombre":"LA REINA URGENCIA","local_direccion":"AV. FRANCISCO BILBAO 7391","funcionamiento_hora_apertura":"00:00:00","funcionamiento_hora_cierre":"23:59:00","local_telefono":"+5626313205","local_lat":"-33.43071187141251","local_lng":"-70.55490532869719","funcionamiento_dia":"jueves"},{"fecha":"2024-07-01","local_id":"1096","fk_region":"7","fk_comuna":"102","fk_localidad":"495","local_nombre":"URGENCIA - AHUMADA ","comuna_nombre":"LAS CONDES","localidad_nombre":"LAS CONDES URGENCIA","local_direccion":"CRISTOBAL COLON 5090","funcionamiento_hora_apertura":"00:00:00","funcionamiento_hora_cierre":"23:59:00","local_telefono":"+5626313058","local_lat":"-33.41878","local_lng":"-70.572098","funcionamiento_dia":"jueves"},{"fecha":"2024-07-01","local_id":"1097","fk_region":"7","fk_comuna":"102","fk_localidad":"495","local_nombre":"URGENCIA - AHUMADA ","comuna_nombre":"LAS CONDES","localidad_nombre":"LAS CONDES URGENCIA","local_direccion":"SAN DAMIAN 20","funcionamiento_hora_apertura":"00:00:00","funcionamiento_hora_cierre":"23:59:00","local_telefono":"+5622156808","local_lat":"-33.376502","local_lng":"-70.525642","funcionamiento_dia":"jueves"},{"fecha":"2024-07-01","local_id":"1144","fk_region":"7","fk_comuna":"102","fk_localidad":"495","local_nombre":"URGENCIA - SALCOBRAND","comuna_nombre":"LAS CONDES","localidad_nombre":"LAS CONDES URGENCIA","local_direccion":"LAS CONDES 12145","funcionamiento_hora_apertura":"00:00:00","funcionamiento_hora_cierre":"23:59:00","local_telefono":"+5622154653","local_lat":"-33.373666","local_lng":"-70.519669","funcionamiento_dia":"jueves"},{"fecha":"2024-07-01","local_id":"1156","fk_region":"7","fk_comuna":"102","fk_localidad":"495","local_nombre":"URGENCIA - SALCOBRAND ","comuna_nombre":"LAS CONDES","localidad_nombre":"LAS CONDES URGENCIA","local_direccion":"PADRE HURTADO NORTE 40","funcionamiento_hora_apertura":"00:00:00","funcionamiento_hora_cierre":"23:59:00","local_telefono":"+5622248248","local_lat":"-33.394043","local_lng":"-70.545963","funcionamiento_dia":"jueves"},{"fecha":"2024-07-01","local_id":"1161","fk_region":"7","fk_comuna":"103","fk_localidad":"122","local_nombre":"URGENCIA - AHUMADA","comuna_nombre":"LO BARNECHEA","localidad_nombre":"LO BARNECHEA","local_direccion":"AV. LA DEHESA 457. LOCAL 1","funcionamiento_hora_apertura":"00:00:00","funcionamiento_hora_cierre":"23:59:00","local_telefono":"+5626313285","local_lat":"-33.362883","local_lng":"-70.514956","funcionamiento_dia":"jueves"},{"fecha":"2024-09-27","local_id":"1188","fk_region":"7","fk_comuna":"105","fk_localidad":"124","local_nombre":"LAS ROSAS ","comuna_nombre":"LO PRADO","localidad_nombre":"LO PRADO","local_direccion":"AV. LIBERTADOR BERNARDO O'HIGGINS 5313 L-10","funcionamiento_hora_apertura":"08:00:00","funcionamiento_hora_cierre":"07:59:00","local_telefono":"+560227761668","local_lat":"-33.45717","local_lng":"-70.705887","funcionamiento_dia":"viernes"},{"fecha":"2024-07-01","local_id":"1196","fk_region":"7","fk_comuna":"106","fk_localidad":"125","local_nombre":"URGENCIA - AHUMADA","comuna_nombre":"MACUL","localidad_nombre":"MACUL","local_direccion":"MACUL 2555","funcionamiento_hora_apertura":"00:00:00","funcionamiento_hora_cierre":"23:59:00","local_telefono":"+560222371550","local_lat":"-33.477933","local_lng":"-70.599040","funcionamiento_dia":"jueves"},{"fecha":"2024-07-01","local_id":"1217","fk_region":"7","fk_comuna":"107","fk_localidad":"492","local_nombre":"URGENCIA - AHUMADA","comuna_nombre":"MAIPU","localidad_nombre":"MAIPU URGENCIA","local_direccion":"AV. LOS PAJARITOS 2340","funcionamiento_hora_apertura":"00:00:00","funcionamiento_hora_cierre":"23:59:00","local_telefono":"+5626313081","local_lat":"-33.5060179","local_lng":"-70.7579657","funcionamiento_dia":"jueves"},{"fecha":"2024-09-27","local_id":"1269","fk_region":"7","fk_comuna":"107","fk_localidad":"377","local_nombre":"PLUSVIDA","comuna_nombre":"MAIPU","localidad_nombre":"MAIPU SUR","local_direccion":"AV. EL OLIMPO 1911 L- A Y B","funcionamiento_hora_apertura":"08:00:00","funcionamiento_hora_cierre":"07:59:00","local_telefono":"+560227692732","local_lat":"-33.512774","local_lng":"-70.775431","funcionamiento_dia":"viernes"},{"fecha":"2024-09-27","local_id":"1381","fk_region":"7","fk_comuna":"113","fk_localidad":"132","local_nombre":"SPLENDID","comuna_nombre":"PEDRO AGUIRRE CERDA","localidad_nombre":"PEDRO AGUIRRE CERDA","local_direccion":"AV. CLOTARIO BLEST (EX AV.LA FERIA ) N\u00b0 4760","funcionamiento_hora_apertura":"08:00:00","funcionamiento_hora_cierre":"07:59:00","local_telefono":"+560225697212","local_lat":"-33.490017","local_lng":"-70.674475","funcionamiento_dia":"viernes"},{"fecha":"2024-07-01","local_id":"1436","fk_region":"7","fk_comuna":"117","fk_localidad":"136","local_nombre":"URGENCIA - SALCOBRAND","comuna_nombre":"PROVIDENCIA","localidad_nombre":"PROVIDENCIA","local_direccion":"MANUEL MONTT 1140","funcionamiento_hora_apertura":"00:00:00","funcionamiento_hora_cierre":"23:59:00","local_telefono":"+5622098919","local_lat":"-33.438335","local_lng":"-70.615679","funcionamiento_dia":"jueves"},{"fecha":"2024-07-01","local_id":"1443","fk_region":"7","fk_comuna":"117","fk_localidad":"136","local_nombre":"URGENCIA - AHUMADA","comuna_nombre":"PROVIDENCIA","localidad_nombre":"PROVIDENCIA","local_direccion":"LOS LEONES 1160","funcionamiento_hora_apertura":"00:00:00","funcionamiento_hora_cierre":"23:59:00","local_telefono":"+5623440447","local_lat":"-33.429951","local_lng":"-70.602705","funcionamiento_dia":"jueves"},{"fecha":"2024-09-27","local_id":"1581","fk_region":"7","fk_comuna":"119","fk_localidad":"531","local_nombre":"DEL DR. SIMI ","comuna_nombre":"PUENTE ALTO","localidad_nombre":"PUENTE ALTO CENTRO","local_direccion":"BALMACEDA 389","funcionamiento_hora_apertura":"08:00:00","funcionamiento_hora_cierre":"07:59:00","local_telefono":"+5629203112","local_lat":"-33.60815","local_lng":"-70.575295","funcionamiento_dia":"viernes"},{"fecha":"2024-09-27","local_id":"1592","fk_region":"7","fk_comuna":"119","fk_localidad":"530","local_nombre":"NETFARMA","comuna_nombre":"PUENTE ALTO","localidad_nombre":"PUENTE ALTO OESTE","local_direccion":"EJERCITO LIBERTADOR 01139","funcionamiento_hora_apertura":"08:00:00","funcionamiento_hora_cierre":"07:59:00","local_telefono":"+5627253006","local_lat":"-33.627987","local_lng":"-70.589894","funcionamiento_dia":"viernes"},{"fecha":"2024-09-27","local_id":"1678","fk_region":"7","fk_comuna":"123","fk_localidad":"142","local_nombre":"IRIS","comuna_nombre":"RENCA","localidad_nombre":"RENCA","local_direccion":"CAUPOLICAN 1520","funcionamiento_hora_apertura":"08:00:00","funcionamiento_hora_cierre":"07:59:00","local_telefono":"+560228932837","local_lat":"-33.402086","local_lng":"-70.702024","funcionamiento_dia":"viernes"},{"fecha":"2024-09-27","local_id":"1738","fk_region":"7","fk_comuna":"125","fk_localidad":"144","local_nombre":"THERAPIA IV","comuna_nombre":"SAN JOAQUIN","localidad_nombre":"SAN JOAQUIN","local_direccion":"IGNACIO VALDIVIESO 2361","funcionamiento_hora_apertura":"08:00:00","funcionamiento_hora_cierre":"07:59:00","local_telefono":"+560223684801","local_lat":"-33.473563","local_lng":"-70.626895","funcionamiento_dia":"viernes"},{"fecha":"2024-07-01","local_id":"1757","fk_region":"7","fk_comuna":"127","fk_localidad":"146","local_nombre":"URGENCIA - CRUZ VERDE","comuna_nombre":"SAN MIGUEL","localidad_nombre":"SAN MIGUEL","local_direccion":"GRAN AVENIDA JOSE MIGUEL CARRERA 6001 1 Y 2","funcionamiento_hora_apertura":"00:00:00","funcionamiento_hora_cierre":"23:59:00","local_telefono":"+5602","local_lat":"-33.509787","local_lng":"-70.656783","funcionamiento_dia":"jueves"},{"fecha":"2024-09-27","local_id":"1774","fk_region":"7","fk_comuna":"129","fk_localidad":"148","local_nombre":"Saludfarma","comuna_nombre":"SAN RAMON","localidad_nombre":"SAN RAMON","local_direccion":"Avenida SANTA ROSA 8097 - A","funcionamiento_hora_apertura":"09:00:00","funcionamiento_hora_cierre":"21:00:00","local_telefono":"","local_lat":"-33.533932","local_lng":"-70.634776","funcionamiento_dia":"viernes"},{"fecha":"2024-07-01","local_id":"1810","fk_region":"7","fk_comuna":"130","fk_localidad":"504","local_nombre":"URGENCIA - AHUMADA","comuna_nombre":"SANTIAGO","localidad_nombre":"SANTIAGO URGENCIA","local_direccion":"PORTUGAL 480","funcionamiento_hora_apertura":"00:00:00","funcionamiento_hora_cierre":"23:59:00","local_telefono":"+5626313704","local_lat":"-33.448018","local_lng":"-70.635315","funcionamiento_dia":"jueves"},{"fecha":"2024-07-01","local_id":"1979","fk_region":"7","fk_comuna":"135","fk_localidad":"508","local_nombre":"URGENCIA - AHUMADA","comuna_nombre":"VITACURA","localidad_nombre":"VITACURA URGENCIA","local_direccion":"VITACURA 6345","funcionamiento_hora_apertura":"00:00:00","funcionamiento_hora_cierre":"23:59:00","local_telefono":"+5622180474","local_lat":"-33.389958","local_lng":"-70.570359","funcionamiento_dia":"jueves"},{"fecha":"2024-07-01","local_id":"1990","fk_region":"7","fk_comuna":"135","fk_localidad":"508","local_nombre":"URGENCIA - CRUZ VERDE","comuna_nombre":"VITACURA","localidad_nombre":"VITACURA URGENCIA","local_direccion":"VITACURA 6602","funcionamiento_hora_apertura":"00:00:00","funcionamiento_hora_cierre":"23:59:00","local_telefono":"+5622187817","local_lat":"-33.388865","local_lng":"-70.568275","funcionamiento_dia":"jueves"},{"fecha":"2024-09-27","local_id":"2271","fk_region":"10","fk_comuna":"200","fk_localidad":"219","local_nombre":"SALUDFARMA EIRL","comuna_nombre":"ARAUCO","localidad_nombre":"ARAUCO","local_direccion":"CAUPOLIC\u00c1N 512-A","funcionamiento_hora_apertura":"09:00:00","funcionamiento_hora_cierre":"08:59:00","local_telefono":"+562183291","local_lat":"-37.2469036","local_lng":"-73.31810659999996","funcionamiento_dia":"viernes"},{"fecha":"2024-09-27","local_id":"2275","fk_region":"16","fk_comuna":"201","fk_localidad":"220","local_nombre":"ITALIA","comuna_nombre":"BULNES","localidad_nombre":"BULNES","local_direccion":"CARLOS PALACIOS N\u00b0394","funcionamiento_hora_apertura":"08:00:00","funcionamiento_hora_cierre":"22:00:00","local_telefono":"+56422631272","local_lat":"-36.7433007289","local_lng":"-72.2979746995","funcionamiento_dia":"viernes"},{"fecha":"2024-09-27","local_id":"2279","fk_region":"10","fk_comuna":"203","fk_localidad":"222","local_nombre":"DR. SIMI","comuna_nombre":"CA\u00d1ETE","localidad_nombre":"CA\u00d1ETE LOCALIDAD 1","local_direccion":"Saavedra 939","funcionamiento_hora_apertura":"09:00:00","funcionamiento_hora_cierre":"08:59:00","local_telefono":"+562613154","local_lat":"-37.7985233","local_lng":"-73.39917439999999","funcionamiento_dia":"viernes"},{"fecha":"2024-09-27","local_id":"2286","fk_region":"10","fk_comuna":"204","fk_localidad":"223","local_nombre":"CRUZ VERDE","comuna_nombre":"CHIGUAYANTE","localidad_nombre":"CHIGUAYANTE LOCALIDAD 1","local_direccion":"M. RODRIGUEZ 925","funcionamiento_hora_apertura":"09:00:00","funcionamiento_hora_cierre":"08:59:00","local_telefono":"+56412364476","local_lat":"-36.9296186186","local_lng":"-73.0232187786","funcionamiento_dia":"viernes"},{"fecha":"2024-07-01","local_id":"2302","fk_region":"16","fk_comuna":"205","fk_localidad":"224","local_nombre":"CRUZ VERDE","comuna_nombre":"CHILLAN","localidad_nombre":"CHILLAN - LOCALIDAD 1","local_direccion":"CALLE CINCO DE ABRIL 701","funcionamiento_hora_apertura":"00:00:00","funcionamiento_hora_cierre":"23:59:00","local_telefono":"2228423","local_lat":"-36.609273","local_lng":"-72.101566","funcionamiento_dia":"jueves"},{"fecha":"2024-09-27","local_id":"2321","fk_region":"16","fk_comuna":"206","fk_localidad":"225","local_nombre":"REDFARMA","comuna_nombre":"CHILLAN VIEJO","localidad_nombre":"CHILLAN VIEJO","local_direccion":"AVDA. OHIGGINS N\u00ba 2305, LOCAL N\u00ba 1","funcionamiento_hora_apertura":"08:00:00","funcionamiento_hora_cierre":"22:00:00","local_telefono":"+562260758","local_lat":"-36.62305062407245","local_lng":"-72.12687264239732","funcionamiento_dia":"viernes"},{"fecha":"2024-09-27","local_id":"2323","fk_region":"16","fk_comuna":"208","fk_localidad":"227","local_nombre":"MAS","comuna_nombre":"COELEMU","localidad_nombre":"COELEMU","local_direccion":"JULIO LAMAS N\u00b0271","funcionamiento_hora_apertura":"08:00:00","funcionamiento_hora_cierre":"22:00:00","local_telefono":"+56422510031","local_lat":"-36.486801632","local_lng":"-72.7031856439","funcionamiento_dia":"viernes"},{"fecha":"2024-07-01","local_id":"2332","fk_region":"10","fk_comuna":"210","fk_localidad":"229","local_nombre":"AHUMADA","comuna_nombre":"CONCEPCION","localidad_nombre":"COLLAO","local_direccion":"AV. JUAN BOSCO N\u00ba 501","funcionamiento_hora_apertura":"00:00:00","funcionamiento_hora_cierre":"23:59:00","local_telefono":"+56412325696","local_lat":"-36.8158535","local_lng":"-73.0320309","funcionamiento_dia":"jueves"},{"fecha":"2024-09-27","local_id":"2369","fk_region":"10","fk_comuna":"246","fk_localidad":"265","local_nombre":"TOME","comuna_nombre":"TOME","localidad_nombre":"TOME","local_direccion":"EGA\u00d1A 1097 LOCAL 1","funcionamiento_hora_apertura":"09:00:00","funcionamiento_hora_cierre":"08:59:00","local_telefono":"+56412382466","local_lat":"-36.617692","local_lng":"-72.956681","funcionamiento_dia":"viernes"},{"fecha":"2024-09-27","local_id":"2392","fk_region":"10","fk_comuna":"212","fk_localidad":"231","local_nombre":"SALCOBRAND","comuna_nombre":"CORONEL","localidad_nombre":"CORONEL CENTRO","local_direccion":"MANUEL MONTT 401","funcionamiento_hora_apertura":"09:00:00","funcionamiento_hora_cierre":"08:59:00","local_telefono":"+56412772337","local_lat":"-37.026737078","local_lng":"-73.1474145197","funcionamiento_dia":"viernes"},{"fecha":"2024-09-27","local_id":"2394","fk_region":"10","fk_comuna":"213","fk_localidad":"232","local_nombre":"CRUZ VERDE","comuna_nombre":"CURANILAHUE","localidad_nombre":"CURANILAHUE LOCALIDAD 1","local_direccion":"LOS LEONES 770","funcionamiento_hora_apertura":"08:00:00","funcionamiento_hora_cierre":"22:00:00","local_telefono":"+562692649","local_lat":"-37.4761291146","local_lng":"-73.3451070197","funcionamiento_dia":"viernes"},{"fecha":"2024-09-27","local_id":"2400","fk_region":"10","fk_comuna":"345","fk_localidad":"363","local_nombre":"FARMACIA EXTERNA CLINICA ANDES SALUD CONCEPCION","comuna_nombre":"HUALPEN","localidad_nombre":"HUALPEN LOCALIDAD 1","local_direccion":"AV. JORGE ALESSANDRI 2047","funcionamiento_hora_apertura":"08:00:00","funcionamiento_hora_cierre":"22:00:00","local_telefono":"+56412666000","local_lat":"-36.8005116452","local_lng":"-73.0718791451","funcionamiento_dia":"viernes"},{"fecha":"2024-09-27","local_id":"2412","fk_region":"10","fk_comuna":"218","fk_localidad":"237","local_nombre":"REDFARMA","comuna_nombre":"LEBU","localidad_nombre":"LEBU LOCALIDAD 1","local_direccion":"RIOSECO N\u00ba 155","funcionamiento_hora_apertura":"08:00:00","funcionamiento_hora_cierre":"22:00:00","local_telefono":"+56412511109","local_lat":"-37.609714","local_lng":"-73.64832899999999","funcionamiento_dia":"viernes"},{"fecha":"2024-09-27","local_id":"2421","fk_region":"10","fk_comuna":"227","fk_localidad":"246","local_nombre":"FARMA EDAN","comuna_nombre":"PENCO","localidad_nombre":"PENCO","local_direccion":"MAIP\u00da 100","funcionamiento_hora_apertura":"09:00:00","funcionamiento_hora_cierre":"08:59:00","local_telefono":"+562450374","local_lat":"-36.7369337312","local_lng":"-72.9940503704","funcionamiento_dia":"viernes"},{"fecha":"2024-09-27","local_id":"2427","fk_region":"16","fk_comuna":"232","fk_localidad":"251","local_nombre":"SUR","comuna_nombre":"QUILLON","localidad_nombre":"QUILLON","local_direccion":"AVDA. CAYUMANQUI N\u00b0565","funcionamiento_hora_apertura":"08:00:00","funcionamiento_hora_cierre":"22:00:00","local_telefono":"+56422580113","local_lat":"-36.742952699986084","local_lng":"-72.47166149691162","funcionamiento_dia":"viernes"},{"fecha":"2024-09-27","local_id":"2435","fk_region":"16","fk_comuna":"235","fk_localidad":"254","local_nombre":"SALCOBRAND","comuna_nombre":"SAN CARLOS","localidad_nombre":"SAN CARLOS - LOCALIDAD 1","local_direccion":"IGNACIO SERRANO N\u00b0593","funcionamiento_hora_apertura":"09:00:00","funcionamiento_hora_cierre":"08:59:00","local_telefono":"+56422411476","local_lat":"-36.4255916666667","local_lng":"-71.9574527777778","funcionamiento_dia":"viernes"},{"fecha":"2024-07-01","local_id":"2438","fk_region":"10","fk_comuna":"240","fk_localidad":"259","local_nombre":"AHUMADA","comuna_nombre":"SAN PEDRO DE LA PAZ","localidad_nombre":"SAN PEDRO DE LA PAZ NORTE","local_direccion":"MICHIMALONCO 1120","funcionamiento_hora_apertura":"00:00:00","funcionamiento_hora_cierre":"23:59:00","local_telefono":"+56412281149","local_lat":"-36.8428314019","local_lng":"-73.0943889475","funcionamiento_dia":"jueves"},{"fecha":"2024-07-01","local_id":"2456","fk_region":"10","fk_comuna":"244","fk_localidad":"263","local_nombre":"CRUZ VERDE","comuna_nombre":"TALCAHUANO","localidad_nombre":"TALCAHUANO-HUALPEN CENTRO","local_direccion":"AV. COL\u00d3N 300","funcionamiento_hora_apertura":"00:00:00","funcionamiento_hora_cierre":"23:59:00","local_telefono":"+562547836","local_lat":"-36.713148579","local_lng":"-73.1136964531","funcionamiento_dia":"jueves"},{"fecha":"2024-09-27","local_id":"2482","fk_region":"16","fk_comuna":"250","fk_localidad":"269","local_nombre":"FARMITALIA","comuna_nombre":"YUNGAY","localidad_nombre":"YUNGAY","local_direccion":"HUAMACHUCO N\u00b0216 - B","funcionamiento_hora_apertura":"08:00:00","funcionamiento_hora_cierre":"22:00:00","local_telefono":"+562266311","local_lat":"-37.1203816986","local_lng":"-72.0164869339","funcionamiento_dia":"viernes"},{"fecha":"2024-07-01","local_id":"2484","fk_region":"10","fk_comuna":"220","fk_localidad":"239","local_nombre":"CRUZ VERDE","comuna_nombre":"LOS ANGELES","localidad_nombre":"LOS ANGELES - LOCALIDAD 1","local_direccion":"COL\u00d3N 411","funcionamiento_hora_apertura":"00:00:00","funcionamiento_hora_cierre":"23:59:00","local_telefono":"+56993796276","local_lat":"-37.469141","local_lng":"-72.350826","funcionamiento_dia":"jueves"},{"fecha":"2024-09-27","local_id":"2502","fk_region":"10","fk_comuna":"202","fk_localidad":"221","local_nombre":"TREBOL","comuna_nombre":"CABRERO","localidad_nombre":"CABRERO","local_direccion":"RIO CLARO 160","funcionamiento_hora_apertura":"08:00:00","funcionamiento_hora_cierre":"22:00:00","local_telefono":"+56976672273","local_lat":"-37.0344855724147","local_lng":"-72.4013355725215","funcionamiento_dia":"viernes"},{"fecha":"2024-09-27","local_id":"2505","fk_region":"10","fk_comuna":"249","fk_localidad":"268","local_nombre":"SAN SEBASTIAN","comuna_nombre":"YUMBEL","localidad_nombre":"YUMBEL - LOCALIDAD 1","local_direccion":"O'HIGGINS 763-A","funcionamiento_hora_apertura":"08:00:00","funcionamiento_hora_cierre":"22:00:00","local_telefono":"+56432431014","local_lat":"-37.0989515256106","local_lng":"-72.5615016024431","funcionamiento_dia":"viernes"},{"fecha":"2024-09-27","local_id":"2512","fk_region":"10","fk_comuna":"217","fk_localidad":"236","local_nombre":"DR. SIMI","comuna_nombre":"LAJA","localidad_nombre":"LAJA","local_direccion":"BALMACEDA 151","funcionamiento_hora_apertura":"08:00:00","funcionamiento_hora_cierre":"22:00:00","local_telefono":"+5643469688","local_lat":"-37.2818087182585","local_lng":"-72.7139151022218","funcionamiento_dia":"viernes"},{"fecha":"2024-09-27","local_id":"2521","fk_region":"10","fk_comuna":"223","fk_localidad":"242","local_nombre":"COMUNITARIA CENTRAL","comuna_nombre":"NACIMIENTO","localidad_nombre":"NACIMIENTO","local_direccion":"SAN MARTIN 423","funcionamiento_hora_apertura":"08:00:00","funcionamiento_hora_cierre":"22:00:00","local_telefono":"+56432519918","local_lat":"-37.5013617584081","local_lng":"-72.6710203395715","funcionamiento_dia":"viernes"},{"fecha":"2024-09-27","local_id":"2533","fk_region":"10","fk_comuna":"243","fk_localidad":"262","local_nombre":"BIO BIO","comuna_nombre":"SANTA JUANA","localidad_nombre":"SANTA JUANA","local_direccion":"LAUTARO 127","funcionamiento_hora_apertura":"08:00:00","funcionamiento_hora_cierre":"22:00:00","local_telefono":"+56412779141","local_lat":"-37.175341078","local_lng":"-72.938374677","funcionamiento_dia":"viernes"},{"fecha":"2024-09-27","local_id":"2545","fk_region":"6","fk_comuna":"78","fk_localidad":"404","local_nombre":"CRUZ VERDE","comuna_nombre":"VALPARAISO","localidad_nombre":"PARQUE LOS INGLESES","local_direccion":"AV. JORGE KENRICK N\u00ba35 LOCAL 3 Y 4","funcionamiento_hora_apertura":"09:00:00","funcionamiento_hora_cierre":"21:00:00","local_telefono":"+563521337","local_lat":"-33.0589849642605","local_lng":"-71.5870608579352","funcionamiento_dia":"viernes"},{"fecha":"2024-09-27","local_id":"2549","fk_region":"10","fk_comuna":"222","fk_localidad":"241","local_nombre":"RIOS","comuna_nombre":"MULCHEN","localidad_nombre":"MULCHEN - LOCALIDAD 1","local_direccion":"VILLAGRAN 601","funcionamiento_hora_apertura":"08:00:00","funcionamiento_hora_cierre":"22:00:00","local_telefono":"+56956893194","local_lat":"-37.72186392345361","local_lng":"-72.24302617486876","funcionamiento_dia":"viernes"},{"fecha":"2024-07-01","local_id":"3114","fk_region":"13","fk_comuna":"311","fk_localidad":"382","local_nombre":"FARMACIAS CRUZ VERDE ","comuna_nombre":"PUERTO MONTT","localidad_nombre":"SECTOR CUARTA TERRAZA","local_direccion":"AVDA. PRESIDENTE IBA\u00d1EZ 173 LOCAL 1","funcionamiento_hora_apertura":"00:00:00","funcionamiento_hora_cierre":"23:59:00","local_telefono":"+56993796664","local_lat":"-41.4617201","local_lng":"-72.94411550000001","funcionamiento_dia":"jueves"},{"fecha":"2024-09-27","local_id":"3122","fk_region":"4","fk_comuna":"27","fk_localidad":"83","local_nombre":"FARMACIA VIDA","comuna_nombre":"HUASCO","localidad_nombre":"HUASCO","local_direccion":"RIQUELME N\u00b0 147","funcionamiento_hora_apertura":"09:00:00","funcionamiento_hora_cierre":"21:00:00","local_telefono":"+562539390","local_lat":"-28.463192","local_lng":"-71.223232","funcionamiento_dia":"viernes"},{"fecha":"2024-07-01","local_id":"3126","fk_region":"4","fk_comuna":"24","fk_localidad":"80","local_nombre":"FARMACIA CRUZ VERDE","comuna_nombre":"COPIAPO","localidad_nombre":"COPIAPO","local_direccion":"CALLE BERNARDO O'HIGGINS 500","funcionamiento_hora_apertura":"00:00:00","funcionamiento_hora_cierre":"23:59:00","local_telefono":"522241213","local_lat":"-27.3659552768545","local_lng":"-70.33417253640327","funcionamiento_dia":"jueves"},{"fecha":"2024-09-27","local_id":"3146","fk_region":"4","fk_comuna":"29","fk_localidad":"85","local_nombre":"FARMACIA AHUMADA","comuna_nombre":"VALLENAR","localidad_nombre":"VALLENAR","local_direccion":"AVENIDA ARTURO PRAT 1100","funcionamiento_hora_apertura":"09:00:00","funcionamiento_hora_cierre":"08:59:00","local_telefono":"232740395","local_lat":"-28.5769305","local_lng":"-70.75857859999996","funcionamiento_dia":"viernes"},{"fecha":"2024-09-27","local_id":"3149","fk_region":"4","fk_comuna":"28","fk_localidad":"84","local_nombre":"FARMACIA FARMATERRA","comuna_nombre":"TIERRA AMARILLA","localidad_nombre":"TIERRA AMARILLA","local_direccion":"MIGUEL LEMEUR N\u00b0 418","funcionamiento_hora_apertura":"09:00:00","funcionamiento_hora_cierre":"22:00:00","local_telefono":"+562329554","local_lat":"-27.467171","local_lng":"-70.26522","funcionamiento_dia":"viernes"},{"fecha":"2024-09-27","local_id":"3155","fk_region":"4","fk_comuna":"25","fk_localidad":"81","local_nombre":"FARMACIA SAN MARTIN","comuna_nombre":"DIEGO DE ALMAGRO","localidad_nombre":"DIEGO DE ALMAGRO","local_direccion":"JUAN MARTINEZ N\u00b0 1107","funcionamiento_hora_apertura":"09:00:00","funcionamiento_hora_cierre":"21:00:00","local_telefono":"+56522449032","local_lat":"-26.3913476","local_lng":"-70.04514719999997","funcionamiento_dia":"viernes"},{"fecha":"2024-09-27","local_id":"3160","fk_region":"4","fk_comuna":"23","fk_localidad":"79","local_nombre":"FARMACIA VARAS","comuna_nombre":"CHA\u00d1ARAL","localidad_nombre":"CHA\u00d1ARAL","local_direccion":"ZULETA N\u00b0 150","funcionamiento_hora_apertura":"09:00:00","funcionamiento_hora_cierre":"08:59:00","local_telefono":"+56522481105","local_lat":"-26.3445445","local_lng":"-70.6175131","funcionamiento_dia":"viernes"},{"fecha":"2024-09-27","local_id":"3167","fk_region":"12","fk_comuna":"283","fk_localidad":"302","local_nombre":"CRUZ VERDE","comuna_nombre":"FUTRONO","localidad_nombre":"FUTRONO","local_direccion":"BALMACEDA N\u00ba 241","funcionamiento_hora_apertura":"09:00:00","funcionamiento_hora_cierre":"08:59:00","local_telefono":"+56632482895","local_lat":"-40.13144444","local_lng":"-72.3898333333","funcionamiento_dia":"viernes"},{"fecha":"2024-09-27","local_id":"3174","fk_region":"12","fk_comuna":"292","fk_localidad":"311","local_nombre":"DR. SIMI","comuna_nombre":"PAILLACO","localidad_nombre":"PAILLACO","local_direccion":"O\u00b4HIGGINS N\u00ba 238","funcionamiento_hora_apertura":"09:00:00","funcionamiento_hora_cierre":"08:59:00","local_telefono":"+56632422384","local_lat":"-40.071194","local_lng":"-72.87433","funcionamiento_dia":"viernes"},{"fecha":"2024-09-27","local_id":"3176","fk_region":"12","fk_comuna":"293","fk_localidad":"312","local_nombre":"DR. SIMI","comuna_nombre":"RIO BUENO","localidad_nombre":"RIO BUENO","local_direccion":"PEDRO LAGOS N\u00b0 622","funcionamiento_hora_apertura":"09:00:00","funcionamiento_hora_cierre":"08:59:00","local_telefono":"+562341818","local_lat":"-40.334403","local_lng":"-72.954823","funcionamiento_dia":"viernes"},{"fecha":"2024-09-27","local_id":"3180","fk_region":"4","fk_comuna":"25","fk_localidad":"389","local_nombre":"FARMACIA SAN MIGUEL","comuna_nombre":"DIEGO DE ALMAGRO","localidad_nombre":"EL SALVADOR","local_direccion":"AV. 4 DE JULIO N\u00b0 706","funcionamiento_hora_apertura":"09:30:00","funcionamiento_hora_cierre":"21:30:00","local_telefono":"+56522475425","local_lat":"-26.245923","local_lng":"-69.626426","funcionamiento_dia":"viernes"},{"fecha":"2024-09-27","local_id":"3181","fk_region":"12","fk_comuna":"291","fk_localidad":"310","local_nombre":"SALCOBRAND","comuna_nombre":"PANGUIPULLI","localidad_nombre":"PANGUIPULLI","local_direccion":"MARTINEZ DE ROSAS N\u00ba 720","funcionamiento_hora_apertura":"09:00:00","funcionamiento_hora_cierre":"08:59:00","local_telefono":"+5663","local_lat":"-39.6425833333333","local_lng":"-72.331805555556","funcionamiento_dia":"viernes"},{"fecha":"2024-09-27","local_id":"3187","fk_region":"11","fk_comuna":"275","fk_localidad":"294","local_nombre":"FARMACIA CRUZ VERDE L-114","comuna_nombre":"TEMUCO","localidad_nombre":"TEMUCO","local_direccion":"MANUEL MONTT 902","funcionamiento_hora_apertura":"09:00:00","funcionamiento_hora_cierre":"23:59:00","local_telefono":"+562272497","local_lat":"-38.73866682512061","local_lng":"-72.58895419384845","funcionamiento_dia":"viernes"},{"fecha":"2024-07-01","local_id":"3191","fk_region":"11","fk_comuna":"275","fk_localidad":"294","local_nombre":"FARMACIA CRUZ VERDE L-367","comuna_nombre":"TEMUCO","localidad_nombre":"TEMUCO","local_direccion":"AVENIDA ALEMANIA 0780","funcionamiento_hora_apertura":"00:00:00","funcionamiento_hora_cierre":"23:59:00","local_telefono":"+562244915","local_lat":"-38.736366215393986","local_lng":"-72.61581743068848","funcionamiento_dia":"jueves"},{"fecha":"2024-09-27","local_id":"3192","fk_region":"12","fk_comuna":"284","fk_localidad":"303","local_nombre":"CRUZ VERDE","comuna_nombre":"LA UNION","localidad_nombre":"LA UNION","local_direccion":"ESMERALDA N\u00ba 700, LOCAL N\u00ba 5","funcionamiento_hora_apertura":"09:00:00","funcionamiento_hora_cierre":"08:59:00","local_telefono":"+56632323480","local_lat":"-40.29475","local_lng":"-73.08113888","funcionamiento_dia":"viernes"},{"fecha":"2024-09-27","local_id":"3243","fk_region":"13","fk_comuna":"320","fk_localidad":"339","local_nombre":"FARMACIA REDFARMA","comuna_nombre":"QUINCHAO","localidad_nombre":"QUINCHAO","local_direccion":"ARTURO PRAT 46, ACHAO","funcionamiento_hora_apertura":"08:00:00","funcionamiento_hora_cierre":"23:59:00","local_telefono":"+562661101","local_lat":"-42.472032","local_lng":"-73.48977200000002","funcionamiento_dia":"viernes"},{"fecha":"2024-09-27","local_id":"3256","fk_region":"13","fk_comuna":"294","fk_localidad":"313","local_nombre":"FARMACIA AHUMADA ","comuna_nombre":"ANCUD","localidad_nombre":"ANCUD","local_direccion":"PUDETO N\u00ba289","funcionamiento_hora_apertura":"09:00:00","funcionamiento_hora_cierre":"08:59:00","local_telefono":"+560","local_lat":"-41.8689651","local_lng":"-73.8260727","funcionamiento_dia":"viernes"},{"fecha":"2024-09-27","local_id":"3265","fk_region":"13","fk_comuna":"296","fk_localidad":"315","local_nombre":"FARMACIA SALCOBRAND","comuna_nombre":"CASTRO","localidad_nombre":"CASTRO","local_direccion":"SAN MARTIN 369","funcionamiento_hora_apertura":"09:00:00","funcionamiento_hora_cierre":"08:59:00","local_telefono":"+562533589","local_lat":"-42.4821281","local_lng":"-73.76365099999998","funcionamiento_dia":"viernes"},{"fecha":"2024-09-27","local_id":"3269","fk_region":"14","fk_comuna":"325","fk_localidad":"344","local_nombre":"FARMAUSTRAL","comuna_nombre":"CHILE CHICO","localidad_nombre":"CHILE CHICO","local_direccion":"BERNARDO O","funcionamiento_hora_apertura":"09:00:00","funcionamiento_hora_cierre":"20:00:00","local_telefono":"+562411461","local_lat":"-46.540901","local_lng":"-71.72228000000001","funcionamiento_dia":"viernes"},{"fecha":"2024-09-27","local_id":"3298","fk_region":"3","fk_comuna":"17","fk_localidad":"73","local_nombre":"FARMACIA CRUZ VERDE","comuna_nombre":"SAN PEDRO DE ATACAMA","localidad_nombre":"SAN PEDRO DE ATACAMA","local_direccion":"CARACOLES N\u00ba359","funcionamiento_hora_apertura":"09:00:00","funcionamiento_hora_cierre":"21:00:00","local_telefono":"+56552851285","local_lat":"-22.911669993889262","local_lng":"-68.199882209301","funcionamiento_dia":"viernes"},{"fecha":"2024-09-27","local_id":"3351","fk_region":"13","fk_comuna":"306","fk_localidad":"325","local_nombre":"FARMACIA CRUZ VERDE ","comuna_nombre":"LLANQUIHUE","localidad_nombre":"LLANQUIHUE","local_direccion":"BAQUEDANO N\u00ba 506 LLANQUIHUE","funcionamiento_hora_apertura":"08:00:00","funcionamiento_hora_cierre":"23:59:00","local_telefono":"+56652242666","local_lat":"-41.2546828","local_lng":"-73.0061713","funcionamiento_dia":"viernes"},{"fecha":"2024-09-27","local_id":"3356","fk_region":"2","fk_comuna":"11","fk_localidad":"67","local_nombre":"FARMACIA JERUSALEN","comuna_nombre":"POZO ALMONTE","localidad_nombre":"POZO ALMONTE","local_direccion":"COMERCIO 307, POZO ALMONTE, TARAPACA, CHILE","funcionamiento_hora_apertura":"09:00:00","funcionamiento_hora_cierre":"22:00:00","local_telefono":"+562751030","local_lat":"-20.259118909311535","local_lng":"-69.78562562698357","funcionamiento_dia":"viernes"},{"fecha":"2024-09-27","local_id":"3358","fk_region":"13","fk_comuna":"305","fk_localidad":"324","local_nombre":"FARMACIA AUSTRAL","comuna_nombre":"HUALAIHUE","localidad_nombre":"HUALAIHUE","local_direccion":"O'HIGGINS ESQ. PEDRO MALDONADO S\/N\u00ba HORNOPIREN COMUNA DE HUALAIHUE","funcionamiento_hora_apertura":"09:00:00","funcionamiento_hora_cierre":"20:00:00","local_telefono":"+562217411","local_lat":"-41.965623","local_lng":"-72.47050000000002","funcionamiento_dia":"viernes"},{"fecha":"2024-09-27","local_id":"3367","fk_region":"14","fk_comuna":"328","fk_localidad":"347","local_nombre":"FARMACIAS CRUZ VERDE","comuna_nombre":"COYHAIQUE","localidad_nombre":"COYHAIQUE","local_direccion":"ARTURO PRAT N\u00b0 307. COYHAIQUE","funcionamiento_hora_apertura":"09:00:00","funcionamiento_hora_cierre":"23:45:00","local_telefono":"+56672254362","local_lat":"-45.5722174","local_lng":"-72.070786","funcionamiento_dia":"viernes"},{"fecha":"2024-07-01","local_id":"3371","fk_region":"14","fk_comuna":"328","fk_localidad":"347","local_nombre":"FARMACIAS CRUZ VERDE","comuna_nombre":"COYHAIQUE","localidad_nombre":"COYHAIQUE","local_direccion":"ARTURO PRAT N\u00b0 378. COYHAIQUE","funcionamiento_hora_apertura":"00:00:00","funcionamiento_hora_cierre":"23:59:00","local_telefono":"+562258386","local_lat":"-45.5729543","local_lng":"-72.07117549999998","funcionamiento_dia":"jueves"},{"fecha":"2024-09-27","local_id":"3379","fk_region":"2","fk_comuna":"10","fk_localidad":"66","local_nombre":"JERUSALEM","comuna_nombre":"PICA","localidad_nombre":"PICA","local_direccion":"BALMACEDA 272","funcionamiento_hora_apertura":"09:00:00","funcionamiento_hora_cierre":"21:00:00","local_telefono":"+56954109335","local_lat":"-20.4906225","local_lng":"-69.32795763","funcionamiento_dia":"viernes"},{"fecha":"2024-09-27","local_id":"3390","fk_region":"13","fk_comuna":"302","fk_localidad":"321","local_nombre":"FARMACIA CONDELL","comuna_nombre":"FRESIA","localidad_nombre":"FRESIA","local_direccion":"SAN CARLOS N\u00ba 424, FRESIA","funcionamiento_hora_apertura":"09:00:00","funcionamiento_hora_cierre":"21:00:00","local_telefono":"+56652441391","local_lat":"-41.1521358094997","local_lng":"-73.41915518045425","funcionamiento_dia":"viernes"},{"fecha":"2024-09-27","local_id":"3436","fk_region":"13","fk_comuna":"315","fk_localidad":"334","local_nombre":"FARMACIA SUR","comuna_nombre":"PURRANQUE","localidad_nombre":"PURRANQUE","local_direccion":"PEDRO MONTT 126","funcionamiento_hora_apertura":"08:00:00","funcionamiento_hora_cierre":"22:00:00","local_telefono":"+562351320","local_lat":"-40.91432334826148","local_lng":"-73.1590747833252","funcionamiento_dia":"viernes"},{"fecha":"2024-09-27","local_id":"3444","fk_region":"15","fk_comuna":"338","fk_localidad":"357","local_nombre":"FARMACIA CRUZ VERDE 197","comuna_nombre":"PUERTO NATALES","localidad_nombre":"PUERTO NATALES","local_direccion":"BAQUEDANO 331","funcionamiento_hora_apertura":"08:00:00","funcionamiento_hora_cierre":"23:59:00","local_telefono":"+562414840","local_lat":"-51.7333","local_lng":"-72.50378","funcionamiento_dia":"viernes"},{"fecha":"2024-09-27","local_id":"3458","fk_region":"13","fk_comuna":"298","fk_localidad":"317","local_nombre":"FARMACIA NACIMIENTO","comuna_nombre":"CHONCHI","localidad_nombre":"CHONCHI","local_direccion":"CALLE CENTENARIO N\u00ba186, CHONCHI","funcionamiento_hora_apertura":"08:00:00","funcionamiento_hora_cierre":"23:59:00","local_telefono":"+56652671254","local_lat":"-42.62276521619805","local_lng":"-73.77264618873596","funcionamiento_dia":"viernes"},{"fecha":"2024-09-27","local_id":"3465","fk_region":"3","fk_comuna":"13","fk_localidad":"69","local_nombre":"FARMACIA CRUZ VERDE","comuna_nombre":"CALAMA","localidad_nombre":"CALAMA","local_direccion":"LATORRE N\u00ba 1965","funcionamiento_hora_apertura":"08:00:00","funcionamiento_hora_cierre":"07:59:00","local_telefono":"+56552312133","local_lat":"-22.4697647","local_lng":"-68.9248276","funcionamiento_dia":"viernes"},{"fecha":"2024-09-27","local_id":"3488","fk_region":"3","fk_comuna":"12","fk_localidad":"391","local_nombre":"FARMACIA GALENO","comuna_nombre":"ANTOFAGASTA","localidad_nombre":"ANTOFAGASTA SUR","local_direccion":"LAS CRUCES N\u00ba 790","funcionamiento_hora_apertura":"09:00:00","funcionamiento_hora_cierre":"21:00:00","local_telefono":"+56552933066","local_lat":"-23.675256051712037","local_lng":"-70.4079761380288","funcionamiento_dia":"viernes"},{"fecha":"2024-09-27","local_id":"3516","fk_region":"11","fk_comuna":"268","fk_localidad":"287","local_nombre":"FARMACIA FARMA LAWEN","comuna_nombre":"PADRE LAS CASAS","localidad_nombre":"PADRE LAS CASAS","local_direccion":"HUICHAHUE N\u00ba260","funcionamiento_hora_apertura":"09:00:00","funcionamiento_hora_cierre":"21:00:00","local_telefono":"+56964407199","local_lat":"-38.760716","local_lng":"-72.591414","funcionamiento_dia":"viernes"},{"fecha":"2024-09-27","local_id":"3521","fk_region":"11","fk_comuna":"251","fk_localidad":"270","local_nombre":"FARMACIA CRUZ VERDE(L-1194)","comuna_nombre":"ANGOL","localidad_nombre":"ANGOL","local_direccion":"LAUTARO N\u00ba 302","funcionamiento_hora_apertura":"09:00:00","funcionamiento_hora_cierre":"08:59:00","local_telefono":"+562712398","local_lat":"-37.79823919424257","local_lng":"-72.70934287000989","funcionamiento_dia":"viernes"},{"fecha":"2024-09-27","local_id":"3527","fk_region":"11","fk_comuna":"271","fk_localidad":"290","local_nombre":"FARMACIA AHUMADA L 340","comuna_nombre":"PUCON","localidad_nombre":"PUCON","local_direccion":"OHIGGINS N\u00ba 412","funcionamiento_hora_apertura":"09:00:00","funcionamiento_hora_cierre":"08:59:00","local_telefono":"+5626313116","local_lat":"-39.27597697899502","local_lng":"-71.9744338857056","funcionamiento_dia":"viernes"},{"fecha":"2024-09-27","local_id":"3536","fk_region":"11","fk_comuna":"279","fk_localidad":"298","local_nombre":"FARMACIA CENTRAL 01","comuna_nombre":"VICTORIA","localidad_nombre":"VICTORIA","local_direccion":"CONFEDERACI\u00d3N SUIZA N\u00ba1268","funcionamiento_hora_apertura":"09:00:00","funcionamiento_hora_cierre":"08:59:00","local_telefono":"+562842608","local_lat":"-38.23508560052928","local_lng":"-72.3323669185105","funcionamiento_dia":"viernes"},{"fecha":"2024-09-27","local_id":"3539","fk_region":"11","fk_comuna":"278","fk_localidad":"297","local_nombre":"FARMACIA CRUZ VERDE","comuna_nombre":"TRAIGUEN","localidad_nombre":"TRAIGUEN","local_direccion":"CALLE SANTA CRUZ 795","funcionamiento_hora_apertura":"09:00:00","funcionamiento_hora_cierre":"08:59:00","local_telefono":"2467616","local_lat":"-38.24913427095767","local_lng":"-72.66859613018039","funcionamiento_dia":"viernes"},{"fecha":"2024-09-27","local_id":"3545","fk_region":"11","fk_comuna":"255","fk_localidad":"274","local_nombre":"FARMACIA DR. SIMI","comuna_nombre":"CURACAUTIN","localidad_nombre":"CURACAUTIN","local_direccion":"OHIGGINS N\u00ba 640","funcionamiento_hora_apertura":"09:00:00","funcionamiento_hora_cierre":"08:59:00","local_telefono":"+56452882640","local_lat":"-38.43785510795259","local_lng":"-71.8898533181382","funcionamiento_dia":"viernes"},{"fecha":"2024-09-27","local_id":"3546","fk_region":"11","fk_comuna":"267","fk_localidad":"286","local_nombre":"FARMACHILE ","comuna_nombre":"NUEVA IMPERIAL","localidad_nombre":"NUEVA IMPERIAL","local_direccion":"SOTOMAYOR N\u00ba 398","funcionamiento_hora_apertura":"09:00:00","funcionamiento_hora_cierre":"08:59:00","local_telefono":"+56452611305","local_lat":"-38.74597799884702","local_lng":"-72.95115697224429","funcionamiento_dia":"viernes"},{"fecha":"2024-09-27","local_id":"3548","fk_region":"11","fk_comuna":"252","fk_localidad":"271","local_nombre":"FARMACIA DR. SIMI","comuna_nombre":"CARAHUE","localidad_nombre":"CARAHUE","local_direccion":"P. DE VALDIVIA N\u00ba 117","funcionamiento_hora_apertura":"09:00:00","funcionamiento_hora_cierre":"08:59:00","local_telefono":"+562651811","local_lat":"-38.711343369375584","local_lng":"-73.16671960349652","funcionamiento_dia":"viernes"},{"fecha":"2024-09-27","local_id":"3552","fk_region":"11","fk_comuna":"260","fk_localidad":"279","local_nombre":"FARMACIA PARIS","comuna_nombre":"GORBEA","localidad_nombre":"GORBEA","local_direccion":"LORD COCHRANE N\u00ba 600","funcionamiento_hora_apertura":"09:00:00","funcionamiento_hora_cierre":"08:59:00","local_telefono":"+56452492048","local_lat":"-39.10233648950985","local_lng":"-72.67400564996478","funcionamiento_dia":"viernes"},{"fecha":"2024-09-27","local_id":"3568","fk_region":"11","fk_comuna":"261","fk_localidad":"280","local_nombre":"F. SALCOBRAND","comuna_nombre":"LAUTARO","localidad_nombre":"LAUTARO","local_direccion":"OHIGGINS N\u00ba 812","funcionamiento_hora_apertura":"09:00:00","funcionamiento_hora_cierre":"08:59:00","local_telefono":"+5645","local_lat":"-38.53154940799138","local_lng":"-72.4346465594162","funcionamiento_dia":"viernes"},{"fecha":"2024-09-27","local_id":"3569","fk_region":"11","fk_comuna":"270","fk_localidad":"289","local_nombre":"F. CRUZ VERDE","comuna_nombre":"PITRUFQUEN","localidad_nombre":"PITRUFQUEN","local_direccion":"AV. FCO. BILBAO N\u00ba 496","funcionamiento_hora_apertura":"09:00:00","funcionamiento_hora_cierre":"08:59:00","local_telefono":"+56452392627","local_lat":"-38.98635010121116","local_lng":"-72.63823982972326","funcionamiento_dia":"viernes"},{"fecha":"2024-09-27","local_id":"3572","fk_region":"11","fk_comuna":"253","fk_localidad":"272","local_nombre":"FARMACIA VITASUR IV","comuna_nombre":"COLLIPULLI","localidad_nombre":"COLLIPULLI","local_direccion":"OCARROL N\u00ba 1002","funcionamiento_hora_apertura":"09:00:00","funcionamiento_hora_cierre":"08:59:00","local_telefono":"+56452464586","local_lat":"-37.95675900890746","local_lng":"-72.43659828905493","funcionamiento_dia":"viernes"},{"fecha":"2024-07-01","local_id":"3580","fk_region":"5","fk_comuna":"36","fk_localidad":"402","local_nombre":"CRUZ VERDE","comuna_nombre":"LA SERENA","localidad_nombre":"LA SERENA","local_direccion":"CORDOVEZ 510","funcionamiento_hora_apertura":"00:00:00","funcionamiento_hora_cierre":"23:59:00","local_telefono":"","local_lat":"-29.903136264072085","local_lng":"-71.24983934365603","funcionamiento_dia":"jueves"},{"fecha":"2024-09-27","local_id":"3613","fk_region":"5","fk_comuna":"34","fk_localidad":"90","local_nombre":"ECONAT","comuna_nombre":"ILLAPEL","localidad_nombre":"ILLAPEL","local_direccion":"CONSTITUCI\u00d3N 636","funcionamiento_hora_apertura":"09:00:00","funcionamiento_hora_cierre":"23:00:00","local_telefono":"+562523272","local_lat":"-31.630276712036668","local_lng":"-71.16302001534422","funcionamiento_dia":"viernes"},{"fecha":"2024-09-27","local_id":"3620","fk_region":"5","fk_comuna":"37","fk_localidad":"93","local_nombre":"EL INDIECITO","comuna_nombre":"LOS VILOS","localidad_nombre":"LOS VILOS","local_direccion":"CAUPOLIC\u00c1N 484","funcionamiento_hora_apertura":"09:00:00","funcionamiento_hora_cierre":"23:00:00","local_telefono":"+56532542595","local_lat":"-31.91039926039233","local_lng":"-71.51027991534426","funcionamiento_dia":"viernes"},{"fecha":"2024-09-27","local_id":"3643","fk_region":"5","fk_comuna":"43","fk_localidad":"99","local_nombre":"LOHSE","comuna_nombre":"SALAMANCA","localidad_nombre":"SALAMANCA","local_direccion":"Matilde Salamanca 220","funcionamiento_hora_apertura":"09:00:00","funcionamiento_hora_cierre":"23:00:00","local_telefono":"","local_lat":"-31.77859219999999","local_lng":"-70.9648235","funcionamiento_dia":"viernes"},{"fecha":"2024-09-27","local_id":"3645","fk_region":"5","fk_comuna":"44","fk_localidad":"100","local_nombre":"CRUZ VERDE","comuna_nombre":"VICU\u00d1A","localidad_nombre":"VICU\u00d1A","local_direccion":"CHACABUCO 302","funcionamiento_hora_apertura":"09:00:00","funcionamiento_hora_cierre":"23:00:00","local_telefono":"+56","local_lat":"-30.03461219217131","local_lng":"-70.7133142143249","funcionamiento_dia":"viernes"},{"fecha":"2024-09-27","local_id":"3650","fk_region":"5","fk_comuna":"33","fk_localidad":"89","local_nombre":"FARMACIA KARVIC","comuna_nombre":"COQUIMBO","localidad_nombre":"COQUIMBO","local_direccion":"SANTIAGO TRIGO 570","funcionamiento_hora_apertura":"09:00:00","funcionamiento_hora_cierre":"08:59:00","local_telefono":"","local_lat":"-29.96630179999999","local_lng":"-71.3364766","funcionamiento_dia":"viernes"},{"fecha":"2024-07-01","local_id":"3676","fk_region":"8","fk_comuna":"162","fk_localidad":"430","local_nombre":"FARMACIA SALCOBRAND","comuna_nombre":"RANCAGUA","localidad_nombre":"RANCAGUA URGENCIA","local_direccion":"INDEPENDENCIA N\u00b0 798","funcionamiento_hora_apertura":"00:00:00","funcionamiento_hora_cierre":"23:59:00","local_telefono":"+56722227528","local_lat":"-34.1694815","local_lng":"-70.74616500000002","funcionamiento_dia":"jueves"},{"fecha":"2024-09-27","local_id":"3700","fk_region":"8","fk_comuna":"155","fk_localidad":"174","local_nombre":"PERALILLO","comuna_nombre":"PERALILLO","localidad_nombre":"PERALILLO","local_direccion":"AVENIDA ERR\u00c1ZURIZ N\u00b0 368","funcionamiento_hora_apertura":"09:00:00","funcionamiento_hora_cierre":"23:59:00","local_telefono":"+56722861335","local_lat":"-34.47992125533133","local_lng":"-71.47913727110284","funcionamiento_dia":"viernes"},{"fecha":"2024-09-27","local_id":"3702","fk_region":"8","fk_comuna":"141","fk_localidad":"421","local_nombre":"LO MIRANDA","comuna_nombre":"DO\u00d1IHUE","localidad_nombre":"LO MIRANDA","local_direccion":"CALLE LAS CARMELITAS 44","funcionamiento_hora_apertura":"09:00:00","funcionamiento_hora_cierre":"20:00:00","local_telefono":"2678141","local_lat":"-34.19839986541759","local_lng":"-70.88969001468047","funcionamiento_dia":"viernes"},{"fecha":"2024-09-27","local_id":"3704","fk_region":"8","fk_comuna":"137","fk_localidad":"156","local_nombre":"M & M","comuna_nombre":"CHIMBARONGO","localidad_nombre":"CHIMBARONGO","local_direccion":"CARMEN LARRA\u00cdN N\u00b0 42","funcionamiento_hora_apertura":"09:00:00","funcionamiento_hora_cierre":"08:59:00","local_telefono":"+56722782590","local_lat":"-34.70828747085347","local_lng":"-71.04289105424499","funcionamiento_dia":"viernes"},{"fecha":"2024-09-27","local_id":"3706","fk_region":"8","fk_comuna":"141","fk_localidad":"160","local_nombre":"LOURDES","comuna_nombre":"DO\u00d1IHUE","localidad_nombre":"DO\u00d1IHUE","local_direccion":"DELF\u00cdN CARVALLO N\u00b0 440-A","funcionamiento_hora_apertura":"10:00:00","funcionamiento_hora_cierre":"20:00:00","local_telefono":"+56722462617","local_lat":"-34.226307107776115","local_lng":"-70.96454438465577","funcionamiento_dia":"viernes"},{"fecha":"2024-09-27","local_id":"3708","fk_region":"8","fk_comuna":"149","fk_localidad":"168","local_nombre":"FLORES","comuna_nombre":"MARCHIGUE","localidad_nombre":"MARCHIGUE","local_direccion":"ARTURO PRAT N\u00b0 487","funcionamiento_hora_apertura":"09:00:00","funcionamiento_hora_cierre":"19:00:00","local_telefono":"+56722831234","local_lat":"-34.39533080152805","local_lng":"-71.62157200000001","funcionamiento_dia":"viernes"},{"fecha":"2024-09-27","local_id":"3709","fk_region":"8","fk_comuna":"150","fk_localidad":"169","local_nombre":" CRUZ VERDE","comuna_nombre":"NANCAGUA","localidad_nombre":"NANCAGUA","local_direccion":"MANUEL RODR\u00cdGUEZ 232-C, NANCAGUA","funcionamiento_hora_apertura":"09:00:00","funcionamiento_hora_cierre":"23:00:00","local_telefono":"+56722858408 - 722858955","local_lat":"-34.65103207788392","local_lng":"-71.20323980693831","funcionamiento_dia":"viernes"},{"fecha":"2024-09-27","local_id":"3723","fk_region":"8","fk_comuna":"166","fk_localidad":"185","local_nombre":"V\u00cdA VERDE","comuna_nombre":"SAN FRANCISCO DE MOSTAZAL","localidad_nombre":"SAN FRANCISCO DE MOSTAZAL","local_direccion":"INDEPENDENCIA N\u00b0 361-B","funcionamiento_hora_apertura":"09:00:00","funcionamiento_hora_cierre":"08:59:00","local_telefono":"+56722491253","local_lat":"-33.978526028591716","local_lng":"-70.7123248245046","funcionamiento_dia":"viernes"},{"fecha":"2024-09-27","local_id":"3735","fk_region":"8","fk_comuna":"147","fk_localidad":"166","local_nombre":"MACHAL\u00cd","comuna_nombre":"MACHALI","localidad_nombre":"MACHALI","local_direccion":"ARTURO PRAT N\u00b0 116, LOCAL 101","funcionamiento_hora_apertura":"09:00:00","funcionamiento_hora_cierre":"23:59:00","local_telefono":"+562","local_lat":"-34.17880030615925","local_lng":"-70.65267407567137","funcionamiento_dia":"viernes"},{"fecha":"2024-09-27","local_id":"3791","fk_region":"3","fk_comuna":"12","fk_localidad":"68","local_nombre":"FARMACIA CRUZ VERDE","comuna_nombre":"ANTOFAGASTA","localidad_nombre":"ANTOFAGASTA CENTRO","local_direccion":"ARTURO PRAT N\u00ba 640","funcionamiento_hora_apertura":"08:00:00","funcionamiento_hora_cierre":"07:59:00","local_telefono":"+56552493164","local_lat":"-23.6490788","local_lng":"-70.39628549999998","funcionamiento_dia":"viernes"},{"fecha":"2024-09-27","local_id":"3813","fk_region":"9","fk_comuna":"187","fk_localidad":"206","local_nombre":"FARMACIA SAN LUIS","comuna_nombre":"RETIRO","localidad_nombre":"RETIRO","local_direccion":"ERRAZURIZ N\u00b024","funcionamiento_hora_apertura":"09:00:00","funcionamiento_hora_cierre":"23:59:00","local_telefono":"+56","local_lat":"-36.0461845","local_lng":"-71.7561264","funcionamiento_dia":"viernes"},{"fecha":"2024-09-27","local_id":"3818","fk_region":"9","fk_comuna":"176","fk_localidad":"195","local_nombre":"FARMACIA HUALA\u00d1\u00c9","comuna_nombre":"HUALA\u00d1E","localidad_nombre":"HUALA\u00d1E","local_direccion":"ARTURO PRAT N\u00b0 286","funcionamiento_hora_apertura":"09:00:00","funcionamiento_hora_cierre":"23:59:00","local_telefono":"+560","local_lat":"-34.976145","local_lng":"-71.803193","funcionamiento_dia":"viernes"},{"fecha":"2024-09-27","local_id":"3833","fk_region":"9","fk_comuna":"192","fk_localidad":"211","local_nombre":"FARMACIA GAETE","comuna_nombre":"SAN JAVIER","localidad_nombre":"SAN JAVIER","local_direccion":"ARTURO PRAT N\u00b0 2464","funcionamiento_hora_apertura":"09:00:00","funcionamiento_hora_cierre":"01:00:00","local_telefono":"+56","local_lat":"-35.5951843","local_lng":"-71.7320175","funcionamiento_dia":"viernes"},{"fecha":"2024-09-27","local_id":"3842","fk_region":"9","fk_comuna":"182","fk_localidad":"201","local_nombre":"FARMACIA AHUMADA","comuna_nombre":"PARRAL","localidad_nombre":"PARRAL","local_direccion":"ANIBAL PINTO N\u00b0640","funcionamiento_hora_apertura":"09:00:00","funcionamiento_hora_cierre":"01:00:00","local_telefono":"","local_lat":"-36.140571","local_lng":"-71.823840","funcionamiento_dia":"viernes"},{"fecha":"2024-09-27","local_id":"3855","fk_region":"9","fk_comuna":"169","fk_localidad":"188","local_nombre":"FARMACIA AHUMADA","comuna_nombre":"CAUQUENES","localidad_nombre":"CAUQUENES","local_direccion":"VICTORIA N\u00b0 501","funcionamiento_hora_apertura":"09:00:00","funcionamiento_hora_cierre":"01:00:00","local_telefono":"","local_lat":"-35.967629","local_lng":"-72.317787","funcionamiento_dia":"viernes"},{"fecha":"2024-09-27","local_id":"3861","fk_region":"9","fk_comuna":"178","fk_localidad":"197","local_nombre":"FARMACIA AHUMADA","comuna_nombre":"LINARES","localidad_nombre":"LINARES","local_direccion":"INDEPENDENCIA N\u00b0 611","funcionamiento_hora_apertura":"09:00:00","funcionamiento_hora_cierre":"08:59:00","local_telefono":"","local_lat":"-35.846789","local_lng":"-71.594347","funcionamiento_dia":"viernes"},{"fecha":"2024-07-01","local_id":"3909","fk_region":"9","fk_comuna":"174","fk_localidad":"193","local_nombre":"FARMACIA CRUZ VERDE","comuna_nombre":"CURICO","localidad_nombre":"CURICO CENTRO","local_direccion":"PRAT N\u00b0 499","funcionamiento_hora_apertura":"00:00:00","funcionamiento_hora_cierre":"23:59:00","local_telefono":"","local_lat":"-34.98386251","local_lng":"-71.24167307","funcionamiento_dia":"jueves"},{"fecha":"2024-07-01","local_id":"3931","fk_region":"9","fk_comuna":"194","fk_localidad":"213","local_nombre":"FARMACIA CRUZ VERDE","comuna_nombre":"TALCA","localidad_nombre":"TALCA CENTRO","local_direccion":"1 SUR N\u00ba 1501","funcionamiento_hora_apertura":"00:00:00","funcionamiento_hora_cierre":"23:59:00","local_telefono":"","local_lat":"-35.4278902328126","local_lng":"-71.6555097197239","funcionamiento_dia":"jueves"},{"fecha":"2024-09-27","local_id":"3975","fk_region":"14","fk_comuna":"327","fk_localidad":"346","local_nombre":"FARMACIA CRUZ VERDE","comuna_nombre":"COCHRANE","localidad_nombre":"COCHRANE","local_direccion":"AVENIDA TENIENTE MERINO N\u00ba 464","funcionamiento_hora_apertura":"09:00:00","funcionamiento_hora_cierre":"21:00:00","local_telefono":"+560228700747","local_lat":"-47.253679","local_lng":"-72.574097","funcionamiento_dia":"viernes"},{"fecha":"2024-09-27","local_id":"4076","fk_region":"4","fk_comuna":"24","fk_localidad":"379","local_nombre":"FARMACIA FE Y ALEGRIA","comuna_nombre":"COPIAPO","localidad_nombre":"PAIPOTE","local_direccion":"JUAN O'DONOVAN N\u00b0 6521, PAIPOTE","funcionamiento_hora_apertura":"10:30:00","funcionamiento_hora_cierre":"21:00:00","local_telefono":"+562384624","local_lat":"-27.410776362148567","local_lng":"-70.27078477790985","funcionamiento_dia":"viernes"},{"fecha":"2024-09-27","local_id":"4125","fk_region":"8","fk_comuna":"146","fk_localidad":"165","local_nombre":"FARMACIA JULIAN","comuna_nombre":"LOLOL","localidad_nombre":"LOLOL","local_direccion":"LOS ALERCES N\u00b0 125","funcionamiento_hora_apertura":"10:00:00","funcionamiento_hora_cierre":"20:00:00","local_telefono":"+56722941311","local_lat":"-34.728201471048415","local_lng":"-71.64579423325188","funcionamiento_dia":"viernes"},{"fecha":"2024-09-27","local_id":"4212","fk_region":"16","fk_comuna":"205","fk_localidad":"224","local_nombre":"BARRIO SALUD","comuna_nombre":"CHILLAN","localidad_nombre":"CHILLAN - LOCALIDAD 1","local_direccion":"ISABEL RIQUELME N\u00b0 602 LOCAL 1","funcionamiento_hora_apertura":"09:00:00","funcionamiento_hora_cierre":"23:59:00","local_telefono":"+56422211768","local_lat":"-36.60846555929935","local_lng":"-72.09975955643313","funcionamiento_dia":"viernes"},{"fecha":"2024-09-27","local_id":"4313","fk_region":"13","fk_comuna":"303","fk_localidad":"322","local_nombre":" FARMACIA CRUZ VERDE ","comuna_nombre":"FRUTILLAR","localidad_nombre":"FRUTILLAR","local_direccion":"CARLOS RICHTER 200 FRUTILLAR","funcionamiento_hora_apertura":"08:00:00","funcionamiento_hora_cierre":"23:59:00","local_telefono":"+566944000","local_lat":"-41.12724344078406","local_lng":"-73.05732250213623","funcionamiento_dia":"viernes"},{"fecha":"2024-09-27","local_id":"4413","fk_region":"5","fk_comuna":"39","fk_localidad":"95","local_nombre":"AHUMADA","comuna_nombre":"OVALLE","localidad_nombre":"OVALLE","local_direccion":"AVENIDA VICU\u00d1A MACKENNA N\u00ba1","funcionamiento_hora_apertura":"09:00:00","funcionamiento_hora_cierre":"08:59:00","local_telefono":"+5626313682","local_lat":"-30.60173","local_lng":"-71.19847","funcionamiento_dia":"viernes"},{"fecha":"2024-09-27","local_id":"4421","fk_region":"6","fk_comuna":"54","fk_localidad":"11","local_nombre":"SALCOBRAND","comuna_nombre":"ISLA DE PASCUA","localidad_nombre":"ISLA DE PASCUA","local_direccion":"HOTU MATUA S\/N\u00ba","funcionamiento_hora_apertura":"09:00:00","funcionamiento_hora_cierre":"21:00:00","local_telefono":"+560224223300","local_lat":"-27.1584148","local_lng":"-109.42961149999996","funcionamiento_dia":"viernes"},{"fecha":"2024-09-27","local_id":"4445","fk_region":"7","fk_comuna":"101","fk_localidad":"120","local_nombre":"VECINA LARAPINTA","comuna_nombre":"LAMPA","localidad_nombre":"LAMPA","local_direccion":"LOS HALCONES 1380","funcionamiento_hora_apertura":"09:00:00","funcionamiento_hora_cierre":"21:00:00","local_telefono":"+560227283811","local_lat":"-33.2943637","local_lng":"-70.8675202","funcionamiento_dia":"viernes"},{"fecha":"2024-07-01","local_id":"4531","fk_region":"7","fk_comuna":"130","fk_localidad":"504","local_nombre":"URGENCIA - SALCOBRAND","comuna_nombre":"SANTIAGO","localidad_nombre":"SANTIAGO URGENCIA","local_direccion":"AV. PORTUGAL 174-178","funcionamiento_hora_apertura":"00:00:00","funcionamiento_hora_cierre":"23:59:00","local_telefono":"+56224223300","local_lat":"-33.444484","local_lng":"-70.636964","funcionamiento_dia":"jueves"},{"fecha":"2024-09-27","local_id":"4535","fk_region":"7","fk_comuna":"114","fk_localidad":"133","local_nombre":"FARMA OFERTAS","comuna_nombre":"PE\u00d1AFLOR","localidad_nombre":"PE\u00d1AFLOR","local_direccion":"VICU\u00d1A MACKENNA 1800. LOCAL C","funcionamiento_hora_apertura":"08:00:00","funcionamiento_hora_cierre":"07:59:00","local_telefono":"+56","local_lat":"-33.610749","local_lng":"-70.877618","funcionamiento_dia":"viernes"},{"fecha":"2024-09-27","local_id":"4544","fk_region":"6","fk_comuna":"79","fk_localidad":"429","local_nombre":"BELLFARMA","comuna_nombre":"VILLA ALEMANA","localidad_nombre":"HUANHUALI","local_direccion":"HUANHUALI 1331","funcionamiento_hora_apertura":"09:00:00","funcionamiento_hora_cierre":"18:00:00","local_telefono":"+563118844","local_lat":"-33.058657929509","local_lng":"-71.3860337445243","funcionamiento_dia":"viernes"},{"fecha":"2024-09-27","local_id":"4577","fk_region":"6","fk_comuna":"72","fk_localidad":"55","local_nombre":"SANTO REMEDIO","comuna_nombre":"RINCONADA","localidad_nombre":"RINCONADA","local_direccion":"CARRETERA SAN MARTIN N\u00b0685, L-12","funcionamiento_hora_apertura":"09:00:00","funcionamiento_hora_cierre":"20:00:00","local_telefono":"+56+56957432515","local_lat":"-32.8334208343886","local_lng":"-70.6891530103657","funcionamiento_dia":"viernes"},{"fecha":"2024-09-27","local_id":"4588","fk_region":"13","fk_comuna":"321","fk_localidad":"340","local_nombre":"FARMACIA LA BOTICA DEL RIO","comuna_nombre":"RIO NEGRO","localidad_nombre":"RIO NEGRO","local_direccion":"Vicu\u00f1a Mackenna 257","funcionamiento_hora_apertura":"09:30:00","funcionamiento_hora_cierre":"18:00:00","local_telefono":"+5678080990","local_lat":"-40.79532409999999","local_lng":"-73.2171458","funcionamiento_dia":"viernes"},{"fecha":"2024-09-27","local_id":"4589","fk_region":"13","fk_comuna":"316","fk_localidad":"335","local_nombre":"FARMACIA LA SALUD","comuna_nombre":"PUYEHUE","localidad_nombre":"PUYEHUE","local_direccion":"COCHRANE N\u00ba 104, ENTRE LAGOS","funcionamiento_hora_apertura":"10:00:00","funcionamiento_hora_cierre":"19:00:00","local_telefono":"+56642371586","local_lat":"-40.68377376608996","local_lng":"-72.59932266637878","funcionamiento_dia":"viernes"},{"fecha":"2024-09-27","local_id":"4598","fk_region":"6","fk_comuna":"67","fk_localidad":"30","local_nombre":"AHUMADA","comuna_nombre":"PUCHUNCAVI","localidad_nombre":"PUCHUNCAVI","local_direccion":"SAN ISIDRO GAETE 476 L-2 MAITENCILLO","funcionamiento_hora_apertura":"09:00:00","funcionamiento_hora_cierre":"23:00:00","local_telefono":"+56022 6313795","local_lat":"-32.6342666563976","local_lng":"-71.4240618277756","funcionamiento_dia":"viernes"},{"fecha":"2024-09-27","local_id":"4600","fk_region":"6","fk_comuna":"69","fk_localidad":"432","local_nombre":"DON ANTONIO","comuna_nombre":"QUILLOTA","localidad_nombre":"LA PALMA","local_direccion":"AVENIDA RAFAEL ARIZT\u00cdA N\u00ba 530, LOCAL N\u00ba 1538, QUILLOTA","funcionamiento_hora_apertura":"09:30:00","funcionamiento_hora_cierre":"20:00:00","local_telefono":"+562335701","local_lat":"-32.8759507280719","local_lng":"-71.2347967649829","funcionamiento_dia":"viernes"},{"fecha":"2024-09-27","local_id":"4625","fk_region":"7","fk_comuna":"120","fk_localidad":"139","local_nombre":"DMEDICAL","comuna_nombre":"QUILICURA","localidad_nombre":"QUILICURA","local_direccion":"LO BASCU\u00f1AN 832","funcionamiento_hora_apertura":"08:00:00","funcionamiento_hora_cierre":"07:59:00","local_telefono":"+56800954028863","local_lat":"","local_lng":"","funcionamiento_dia":"viernes"},{"fecha":"2024-09-27","local_id":"4663","fk_region":"6","fk_comuna":"80","fk_localidad":"433","local_nombre":"AZUCENA","comuna_nombre":"VI\u00d1A DEL MAR","localidad_nombre":"SANTA JULIA","local_direccion":"PASAJE BELGICA 1-D, SANTA JULIA","funcionamiento_hora_apertura":"10:00:00","funcionamiento_hora_cierre":"19:00:00","local_telefono":"+562872433","local_lat":"-33.0057735200065","local_lng":"-71.4961181973553","funcionamiento_dia":"viernes"},{"fecha":"2024-09-27","local_id":"4736","fk_region":"6","fk_comuna":"78","fk_localidad":"27","local_nombre":"DR. SIMI","comuna_nombre":"VALPARAISO","localidad_nombre":"PLACILLA","local_direccion":"TERCERA DEL SUR 680, VALPARAISO","funcionamiento_hora_apertura":"09:00:00","funcionamiento_hora_cierre":"23:00:00","local_telefono":"+563436751","local_lat":"-33.1172500902416","local_lng":"-71.5691824444193","funcionamiento_dia":"viernes"},{"fecha":"2024-09-27","local_id":"4779","fk_region":"13","fk_comuna":"319","fk_localidad":"338","local_nombre":"FARMACIA FENIX","comuna_nombre":"QUEMCHI","localidad_nombre":"QUEMCHI","local_direccion":"DIEGO BAHAMONDE N\u00b0365-B QUEMCHI","funcionamiento_hora_apertura":"10:00:00","funcionamiento_hora_cierre":"18:00:00","local_telefono":"+56978992440","local_lat":"-42.144203","local_lng":"-73.473397","funcionamiento_dia":"viernes"},{"fecha":"2024-09-27","local_id":"4834","fk_region":"4","fk_comuna":"22","fk_localidad":"78","local_nombre":"FARMACIA AURORA","comuna_nombre":"CALDERA","localidad_nombre":"CALDERA","local_direccion":"CARVALLO N\u00b0 307","funcionamiento_hora_apertura":"09:00:00","funcionamiento_hora_cierre":"08:59:00","local_telefono":"+56522541721","local_lat":"-27.0683547","local_lng":"-70.8226749","funcionamiento_dia":"viernes"},{"fecha":"2024-07-01","local_id":"4854","fk_region":"5","fk_comuna":"39","fk_localidad":"95","local_nombre":"FARMACIA DR. AMIGO","comuna_nombre":"OVALLE","localidad_nombre":"OVALLE","local_direccion":"VICU\u00d1A MACKENNA 223, OVALLE","funcionamiento_hora_apertura":"00:00:00","funcionamiento_hora_cierre":"23:59:00","local_telefono":"+56963060175","local_lat":"-30.603177402771216","local_lng":"-71.20148894672695","funcionamiento_dia":"jueves"},{"fecha":"2024-09-27","local_id":"4881","fk_region":"6","fk_comuna":"80","fk_localidad":"36","local_nombre":"CRUZ VERDE","comuna_nombre":"VI\u00d1A DEL MAR","localidad_nombre":"RE\u00d1ACA","local_direccion":"AV. EDMUNDO ELUCHANS 2030 L-2","funcionamiento_hora_apertura":"09:00:00","funcionamiento_hora_cierre":"21:00:00","local_telefono":"+560226944813","local_lat":"-32.9566609747513","local_lng":"-71.5437953063162","funcionamiento_dia":"viernes"},{"fecha":"2024-09-27","local_id":"4949","fk_region":"6","fk_comuna":"69","fk_localidad":"32","local_nombre":"DR. SIMI","comuna_nombre":"QUILLOTA","localidad_nombre":"QUILLOTA","local_direccion":"BLANCO ENCALADA N\u00ba 11","funcionamiento_hora_apertura":"09:00:00","funcionamiento_hora_cierre":"08:59:00","local_telefono":"","local_lat":"-32.8773946329001","local_lng":"-71.2437991417683","funcionamiento_dia":"viernes"},{"fecha":"2024-09-27","local_id":"4970","fk_region":"8","fk_comuna":"163","fk_localidad":"182","local_nombre":"FCIA. DR. SIMI","comuna_nombre":"RENGO","localidad_nombre":"RENGO","local_direccion":"SAN MARTIN N\u00ba 170","funcionamiento_hora_apertura":"09:00:00","funcionamiento_hora_cierre":"08:59:00","local_telefono":"+56722758376","local_lat":"-34.3851868","local_lng":"-70.84784780000001","funcionamiento_dia":"viernes"},{"fecha":"2024-09-27","local_id":"5006","fk_region":"13","fk_comuna":"304","fk_localidad":"323","local_nombre":"DRUGSTORE PATAGONIA","comuna_nombre":"FUTALEUFU","localidad_nombre":"FUTALEUFU","local_direccion":"ARTURO PRAT 330, FUTALEUFU","funcionamiento_hora_apertura":"10:00:00","funcionamiento_hora_cierre":"20:00:00","local_telefono":"+56992992586","local_lat":"-43.1852697","local_lng":"-71.8674685","funcionamiento_dia":"viernes"},{"fecha":"2024-09-27","local_id":"5061","fk_region":"7","fk_comuna":"93","fk_localidad":"112","local_nombre":"AHUMADA","comuna_nombre":"HUECHURABA","localidad_nombre":"HUECHURABA","local_direccion":"DEL PARQUE 4722","funcionamiento_hora_apertura":"08:00:00","funcionamiento_hora_cierre":"07:59:00","local_telefono":"+560","local_lat":"-33.3898186","local_lng":"-70.61858430000001","funcionamiento_dia":"viernes"},{"fecha":"2024-09-27","local_id":"5077","fk_region":"6","fk_comuna":"79","fk_localidad":"438","local_nombre":"DOCTOR FARMA","comuna_nombre":"VILLA ALEMANA","localidad_nombre":"TRONCOS VIEJOS","local_direccion":"POMETO 898, VILLA ALEMANA","funcionamiento_hora_apertura":"11:00:00","funcionamiento_hora_cierre":"20:00:00","local_telefono":"+5698987243","local_lat":"-33.0574893110968","local_lng":"-71.3900819417226","funcionamiento_dia":"viernes"},{"fecha":"2024-09-27","local_id":"5088","fk_region":"7","fk_comuna":"111","fk_localidad":"130","local_nombre":"FARMA GRAU","comuna_nombre":"PADRE HURTADO","localidad_nombre":"PADRE HURTADO","local_direccion":"R\u00cdO ACONCAGUA 624","funcionamiento_hora_apertura":"08:00:00","funcionamiento_hora_cierre":"07:59:00","local_telefono":"+56","local_lat":"-33.5746113","local_lng":"-70.81201529999998","funcionamiento_dia":"viernes"},{"fecha":"2024-09-27","local_id":"5106","fk_region":"7","fk_comuna":"92","fk_localidad":"111","local_nombre":"VITAUD 2.0","comuna_nombre":"ESTACION CENTRAL","localidad_nombre":"ESTACION CENTRAL","local_direccion":"AVENIDA LAS REJAS SUR 487","funcionamiento_hora_apertura":"08:00:00","funcionamiento_hora_cierre":"07:59:00","local_telefono":"+56","local_lat":"-33.4624591","local_lng":"-70.70531779999999","funcionamiento_dia":"viernes"},{"fecha":"2024-09-27","local_id":"5110","fk_region":"6","fk_comuna":"70","fk_localidad":"439","local_nombre":"MARGA MARGA","comuna_nombre":"QUILPUE","localidad_nombre":"MARGA - MARGA","local_direccion":"MARGA MARGA 1650.","funcionamiento_hora_apertura":"09:00:00","funcionamiento_hora_cierre":"21:00:00","local_telefono":"+5690107454","local_lat":"-33.0565225519464","local_lng":"-71.4270512439142","funcionamiento_dia":"viernes"},{"fecha":"2024-09-27","local_id":"5197","fk_region":"12","fk_comuna":"286","fk_localidad":"305","local_nombre":"INTEGRAL LANCO","comuna_nombre":"LANCO","localidad_nombre":"LANCO","local_direccion":"LIBERTAD N\u00b0 338","funcionamiento_hora_apertura":"09:00:00","funcionamiento_hora_cierre":"08:59:00","local_telefono":"+56988080659","local_lat":"-39.4525314","local_lng":"-72.77454610000001","funcionamiento_dia":"viernes"},{"fecha":"2024-09-27","local_id":"5198","fk_region":"8","fk_comuna":"161","fk_localidad":"180","local_nombre":"FARMACIA GUTI","comuna_nombre":"QUINTA DE TILCOCO","localidad_nombre":"QUINTA DE TILCOCO","local_direccion":"AVENIDA ARGOMEDO N\u00ba 1753-A","funcionamiento_hora_apertura":"08:00:00","funcionamiento_hora_cierre":"23:59:00","local_telefono":"","local_lat":"-34.3542862","local_lng":"-70.9626394","funcionamiento_dia":"viernes"},{"fecha":"2024-09-27","local_id":"5248","fk_region":"13","fk_comuna":"318","fk_localidad":"337","local_nombre":"FARMACIA DR.SIMI","comuna_nombre":"QUELLON","localidad_nombre":"QUELLON","local_direccion":"LADRILLEROS 489, QUELLON","funcionamiento_hora_apertura":"09:00:00","funcionamiento_hora_cierre":"08:59:00","local_telefono":"+56+56996991731","local_lat":"-43.1173131","local_lng":"-73.62166400000001","funcionamiento_dia":"viernes"},{"fecha":"2024-09-27","local_id":"5292","fk_region":"9","fk_comuna":"172","fk_localidad":"191","local_nombre":"FARMACIA CONSTITUCI\u00d3N","comuna_nombre":"CONSTITUCION","localidad_nombre":"CONSTITUCION","local_direccion":"INFANTE N\u00ba207, LOCAL 3","funcionamiento_hora_apertura":"09:00:00","funcionamiento_hora_cierre":"08:59:00","local_telefono":"+56092327407","local_lat":"-35.334711","local_lng":"-72.406092","funcionamiento_dia":"viernes"},{"fecha":"2024-09-27","local_id":"5296","fk_region":"13","fk_comuna":"317","fk_localidad":"336","local_nombre":"FARMACIA BUENAVIDA","comuna_nombre":"QUEILEN","localidad_nombre":"QUEILEN","local_direccion":"PEDRO AGUIRE CERDA N\u00b0162, QUEILEN","funcionamiento_hora_apertura":"09:30:00","funcionamiento_hora_cierre":"20:00:00","local_telefono":"+56+56988095665","local_lat":"-42.8899545","local_lng":"-73.4753981","funcionamiento_dia":"viernes"},{"fecha":"2024-09-27","local_id":"5305","fk_region":"13","fk_comuna":"313","fk_localidad":"332","local_nombre":"FARMACIA IDINI","comuna_nombre":"PUERTO VARAS","localidad_nombre":"SECTOR CENTRO","local_direccion":"WALKER MARTINEZ N\u00b0317, PUERTO VARAS","funcionamiento_hora_apertura":"09:00:00","funcionamiento_hora_cierre":"08:59:00","local_telefono":"+5665","local_lat":"-41.3166872","local_lng":"-72.9840865","funcionamiento_dia":"viernes"},{"fecha":"2024-09-27","local_id":"5339","fk_region":"7","fk_comuna":"107","fk_localidad":"126","local_nombre":"SAINT GERMAIN","comuna_nombre":"MAIPU","localidad_nombre":"MAIPU NORTE","local_direccion":"LONGITUDINAL 5045","funcionamiento_hora_apertura":"08:00:00","funcionamiento_hora_cierre":"07:59:00","local_telefono":"+56","local_lat":"-33.4747329","local_lng":"-70.74887469999999","funcionamiento_dia":"viernes"},{"fecha":"2024-09-27","local_id":"5347","fk_region":"13","fk_comuna":"311","fk_localidad":"382","local_nombre":"FARMACIA CAYENEL","comuna_nombre":"PUERTO MONTT","localidad_nombre":"SECTOR CUARTA TERRAZA","local_direccion":"LOS SAUCES N\u00b071, VILLA CAYENEL, PUERTO MONTT","funcionamiento_hora_apertura":"09:00:00","funcionamiento_hora_cierre":"21:00:00","local_telefono":"+5656962154072","local_lat":"-41.4499984","local_lng":"-72.9575065","funcionamiento_dia":"viernes"},{"fecha":"2024-09-27","local_id":"5389","fk_region":"6","fk_comuna":"61","fk_localidad":"20","local_nombre":"SANTO REMEDIO 3","comuna_nombre":"LOS ANDES","localidad_nombre":"LOS ANDES","local_direccion":"ESMERALDA N\u00b0607","funcionamiento_hora_apertura":"09:00:00","funcionamiento_hora_cierre":"08:59:00","local_telefono":"+5667422758","local_lat":"-32.83208658333422","local_lng":"-70.60128048937986","funcionamiento_dia":"viernes"},{"fecha":"2024-09-27","local_id":"5412","fk_region":"6","fk_comuna":"53","fk_localidad":"51","local_nombre":"PLAZA HIJUELAS","comuna_nombre":"HIJUELAS","localidad_nombre":"HIJUELAS","local_direccion":"MANUEL RODR\u00edGUEZ #1496 LOCAL 1","funcionamiento_hora_apertura":"10:00:00","funcionamiento_hora_cierre":"20:00:00","local_telefono":"+5696911000","local_lat":"-32.7997531","local_lng":"-71.14586550000001","funcionamiento_dia":"viernes"},{"fecha":"2024-09-27","local_id":"5430","fk_region":"8","fk_comuna":"158","fk_localidad":"177","local_nombre":"FARMACIA VIENTOS DE MAR","comuna_nombre":"PICHILEMU","localidad_nombre":"PICHILEMU","local_direccion":"AVENIDA MILLACO 534, LOCAL 13 A, PICHILEMU","funcionamiento_hora_apertura":"09:00:00","funcionamiento_hora_cierre":"08:59:00","local_telefono":"+560","local_lat":"-34.3896409","local_lng":"-72.01309950000001","funcionamiento_dia":"viernes"},{"fecha":"2024-09-27","local_id":"5466","fk_region":"7","fk_comuna":"115","fk_localidad":"134","local_nombre":"FLORES","comuna_nombre":"PE\u00d1ALOLEN","localidad_nombre":"PE\u00d1ALOLEN","local_direccion":"EL VALLE 6381, L.2","funcionamiento_hora_apertura":"08:00:00","funcionamiento_hora_cierre":"07:59:00","local_telefono":"","local_lat":"-33.4771531","local_lng":"-70.56917579999998","funcionamiento_dia":"viernes"},{"fecha":"2024-09-27","local_id":"5515","fk_region":"12","fk_comuna":"290","fk_localidad":"309","local_nombre":"PICARTE","comuna_nombre":"VALDIVIA","localidad_nombre":"VALDIVIA","local_direccion":"AVENIDA RAM\u00d3N PICARTE N\u00b0 493","funcionamiento_hora_apertura":"09:00:00","funcionamiento_hora_cierre":"00:00:00","local_telefono":"+560","local_lat":"-39.81459511220859","local_lng":"-73.24274684110452","funcionamiento_dia":"viernes"},{"fecha":"2024-09-27","local_id":"5523","fk_region":"8","fk_comuna":"138","fk_localidad":"157","local_nombre":"FARMACIA CODEGUA","comuna_nombre":"CODEGUA","localidad_nombre":"CODEGUA","local_direccion":"CALLE ANDES N\u00ba 88, CODEGUA","funcionamiento_hora_apertura":"09:45:00","funcionamiento_hora_cierre":"19:30:00","local_telefono":"","local_lat":"-34.0353709","local_lng":"-70.66730009999998","funcionamiento_dia":"viernes"},{"fecha":"2024-09-27","local_id":"5543","fk_region":"6","fk_comuna":"70","fk_localidad":"448","local_nombre":"ECOFARMACIAS","comuna_nombre":"QUILPUE","localidad_nombre":"CANAL CHACAO","local_direccion":"LOS LUNES N\u00b013 QUILPU\u00c9","funcionamiento_hora_apertura":"09:00:00","funcionamiento_hora_cierre":"19:00:00","local_telefono":"+562270418","local_lat":"-33.035851","local_lng":"-71.4841017","funcionamiento_dia":"viernes"},{"fecha":"2024-09-27","local_id":"5596","fk_region":"6","fk_comuna":"69","fk_localidad":"437","local_nombre":"FARMACIA CRUZ VERDE","comuna_nombre":"QUILLOTA","localidad_nombre":"COPA DE AGUA","local_direccion":"CHACABUCO N\u00b0 281, QUILLOTA","funcionamiento_hora_apertura":"09:00:00","funcionamiento_hora_cierre":"21:00:00","local_telefono":"+562319578","local_lat":"-32.878338","local_lng":"-71.24622499999998","funcionamiento_dia":"viernes"},{"fecha":"2024-09-27","local_id":"5616","fk_region":"11","fk_comuna":"281","fk_localidad":"450","local_nombre":"FARMACIA KUMELEN","comuna_nombre":"VILLARRICA","localidad_nombre":"LICAN RAY","local_direccion":"GENERAL URRUTIA N\u00b0 725 LICAN RAY","funcionamiento_hora_apertura":"09:00:00","funcionamiento_hora_cierre":"08:59:00","local_telefono":"+56972312988","local_lat":"-39.4876843","local_lng":"-72.16021549999999","funcionamiento_dia":"viernes"},{"fecha":"2024-09-27","local_id":"5632","fk_region":"7","fk_comuna":"119","fk_localidad":"529","local_nombre":"SANTA ESPERANZA","comuna_nombre":"PUENTE ALTO","localidad_nombre":"PUENTE ALTO ESTE","local_direccion":"PASAJE EL VIENES SUR 06388","funcionamiento_hora_apertura":"08:00:00","funcionamiento_hora_cierre":"07:59:00","local_telefono":"","local_lat":"-33.4569400","local_lng":"-70.6482700","funcionamiento_dia":"viernes"},{"fecha":"2024-07-01","local_id":"5785","fk_region":"7","fk_comuna":"110","fk_localidad":"502","local_nombre":"URGENCIA - AHUMADA","comuna_nombre":"\u00d1U\u00d1OA","localidad_nombre":"\u00d1U\u00d1OA URGENCIA","local_direccion":"AVENIDA IRARR\u00c1ZAVAL 4221","funcionamiento_hora_apertura":"00:00:00","funcionamiento_hora_cierre":"23:59:00","local_telefono":"+560","local_lat":"-33.455672","local_lng":"-70.58563","funcionamiento_dia":"jueves"},{"fecha":"2024-09-27","local_id":"5793","fk_region":"9","fk_comuna":"171","fk_localidad":"190","local_nombre":"FARMACIA SAN MATEO","comuna_nombre":"COLBUN","localidad_nombre":"COLBUN","local_direccion":"AVENIDA O\u00b4HIGGINS N\u00ba203, LOCAL 1 COLB\u00daN","funcionamiento_hora_apertura":"09:00:00","funcionamiento_hora_cierre":"22:00:00","local_telefono":"+560944955126","local_lat":"-35.698272","local_lng":"-71.406408","funcionamiento_dia":"viernes"},{"fecha":"2024-09-27","local_id":"5811","fk_region":"7","fk_comuna":"109","fk_localidad":"128","local_nombre":"CRUZ VERDE","comuna_nombre":"MELIPILLA","localidad_nombre":"MELIPILLA","local_direccion":"AVENIDA VICU\u00f1A MACKENNA N\u00b0 302, LOCAL 19","funcionamiento_hora_apertura":"08:00:00","funcionamiento_hora_cierre":"07:59:00","local_telefono":"+560","local_lat":"","local_lng":"","funcionamiento_dia":"viernes"},{"fecha":"2024-09-27","local_id":"5871","fk_region":"13","fk_comuna":"313","fk_localidad":"452","local_nombre":"FARMACIA BOTICA BRAUNAU","comuna_nombre":"PUERTO VARAS","localidad_nombre":"NUEVA BRAUNAU","local_direccion":"OTTO KLEIN DORNER S\/N\u00b0, NUEVA BRAUNAU, PUERTO VARAS","funcionamiento_hora_apertura":"11:00:00","funcionamiento_hora_cierre":"21:00:00","local_telefono":"+5673108366","local_lat":"-41.3255893","local_lng":"-73.079912","funcionamiento_dia":"viernes"},{"fecha":"2024-09-27","local_id":"5974","fk_region":"7","fk_comuna":"104","fk_localidad":"123","local_nombre":"NEFRES","comuna_nombre":"LO ESPEJO","localidad_nombre":"LO ESPEJO","local_direccion":"AVENIDA CENTRAL 7397, LOCALES 4 Y 5","funcionamiento_hora_apertura":"09:00:00","funcionamiento_hora_cierre":"21:00:00","local_telefono":"+56","local_lat":"-33.521553","local_lng":"-70.697128","funcionamiento_dia":"viernes"},{"fecha":"2024-09-27","local_id":"5989","fk_region":"6","fk_comuna":"45","fk_localidad":"3","local_nombre":"DR. SIMI","comuna_nombre":"ALGARROBO","localidad_nombre":"ALGARROBO","local_direccion":"EL ARRAY\u00c1N 2410","funcionamiento_hora_apertura":"09:00:00","funcionamiento_hora_cierre":"23:00:00","local_telefono":"+5633915188","local_lat":"-33.372818","local_lng":"-71.66702099999999","funcionamiento_dia":"viernes"},{"fecha":"2024-07-01","local_id":"5990","fk_region":"5","fk_comuna":"36","fk_localidad":"402","local_nombre":"FARMACIA DR AMIGO","comuna_nombre":"LA SERENA","localidad_nombre":"LA SERENA","local_direccion":"BALMACEDA N\u00b0 438","funcionamiento_hora_apertura":"00:00:00","funcionamiento_hora_cierre":"23:59:00","local_telefono":"+5663060175","local_lat":"-29.902602536881606","local_lng":"-71.24978225337296","funcionamiento_dia":"jueves"},{"fecha":"2024-09-27","local_id":"6005","fk_region":"8","fk_comuna":"148","fk_localidad":"167","local_nombre":"FARMACIA MANANTIALES","comuna_nombre":"MALLOA","localidad_nombre":"MALLOA","local_direccion":"Daniel Bernales N\u00b03","funcionamiento_hora_apertura":"09:00:00","funcionamiento_hora_cierre":"19:00:00","local_telefono":"","local_lat":"-34.44190310714896","local_lng":"-70.94428390807343","funcionamiento_dia":"viernes"},{"fecha":"2024-09-27","local_id":"6028","fk_region":"8","fk_comuna":"140","fk_localidad":"159","local_nombre":"DIVINA SALUD","comuna_nombre":"COLTAUCO","localidad_nombre":"COLTAUCO","local_direccion":"ARTURO PRAT 321","funcionamiento_hora_apertura":"09:00:00","funcionamiento_hora_cierre":"18:30:00","local_telefono":"+56992573946","local_lat":"-34.29296990000001","local_lng":"-71.08049789140166","funcionamiento_dia":"viernes"},{"fecha":"2024-09-27","local_id":"6030","fk_region":"13","fk_comuna":"307","fk_localidad":"326","local_nombre":"FARMACIA DEL DR. SIMI","comuna_nombre":"LOS MUERMOS","localidad_nombre":"LOS MUERMOS","local_direccion":"BERNARDO O\u00b4HIGGINS N\u00b01, LOS MUERMOS","funcionamiento_hora_apertura":"08:00:00","funcionamiento_hora_cierre":"23:59:00","local_telefono":"+56+56652211648","local_lat":"-41.3961513","local_lng":"-73.4608997","funcionamiento_dia":"viernes"},{"fecha":"2024-09-27","local_id":"6041","fk_region":"13","fk_comuna":"312","fk_localidad":"331","local_nombre":"FARMACIA PUERTO OCTAY","comuna_nombre":"PUERTO OCTAY","localidad_nombre":"PUERTO OCTAY","local_direccion":"AMUNATEGUI 598","funcionamiento_hora_apertura":"09:00:00","funcionamiento_hora_cierre":"19:00:00","local_telefono":"+5683763772","local_lat":"-40.9731966","local_lng":"-72.8835636","funcionamiento_dia":"viernes"},{"fecha":"2024-09-27","local_id":"6056","fk_region":"3","fk_comuna":"20","fk_localidad":"76","local_nombre":"FARMACIA TOCOPILLA","comuna_nombre":"TOCOPILLA","localidad_nombre":"TOCOPILLA","local_direccion":"21 DE MAYO 1532-1524","funcionamiento_hora_apertura":"09:00:00","funcionamiento_hora_cierre":"23:00:00","local_telefono":"+56931169654","local_lat":"-22.09384082331364","local_lng":"-70.2016776021005","funcionamiento_dia":"viernes"},{"fecha":"2024-09-27","local_id":"6071","fk_region":"3","fk_comuna":"12","fk_localidad":"392","local_nombre":"FARMACIA BICENTENARIO II","comuna_nombre":"ANTOFAGASTA","localidad_nombre":"ANTOFAGASTA NORTE","local_direccion":"HUAMACHUCO N\u00b09594","funcionamiento_hora_apertura":"09:00:00","funcionamiento_hora_cierre":"21:00:00","local_telefono":"+5655224196726","local_lat":"-23.575877530879282","local_lng":"-70.38189418079835","funcionamiento_dia":"viernes"},{"fecha":"2024-09-27","local_id":"6118","fk_region":"7","fk_comuna":"121","fk_localidad":"140","local_nombre":"PINTO MART\u00cdNEZ","comuna_nombre":"QUINTA NORMAL","localidad_nombre":"QUINTA NORMAL","local_direccion":"LO ESPINOZA 2851","funcionamiento_hora_apertura":"08:00:00","funcionamiento_hora_cierre":"07:59:00","local_telefono":"+56","local_lat":"-33.412241","local_lng":"-70.706067","funcionamiento_dia":"viernes"},{"fecha":"2024-09-27","local_id":"6283","fk_region":"6","fk_comuna":"78","fk_localidad":"426","local_nombre":"CHILENA","comuna_nombre":"VALPARAISO","localidad_nombre":"PLACERES","local_direccion":"AV AGUA SANTA N\u00b04024 LOCAL 07","funcionamiento_hora_apertura":"10:00:00","funcionamiento_hora_cierre":"18:00:00","local_telefono":"+5665723862","local_lat":"-33.04891890506696","local_lng":"-71.5615132883606","funcionamiento_dia":"viernes"},{"fecha":"2024-09-27","local_id":"6303","fk_region":"16","fk_comuna":"209","fk_localidad":"228","local_nombre":"FARMACIA LA BOTICA","comuna_nombre":"COIHUECO","localidad_nombre":"COIHUECO","local_direccion":"ARTURO PRAT 1570, COIHUECO","funcionamiento_hora_apertura":"08:00:00","funcionamiento_hora_cierre":"22:00:00","local_telefono":"+56920267373","local_lat":"-36.628138","local_lng":"-71.833102","funcionamiento_dia":"viernes"},{"fecha":"2024-09-27","local_id":"6340","fk_region":"6","fk_comuna":"57","fk_localidad":"13","local_nombre":"DR. SIMI","comuna_nombre":"LA CRUZ","localidad_nombre":"LA CRUZ","local_direccion":"AVENIDA 21 DE MAYO 5426, LOCALES 8 Y 9","funcionamiento_hora_apertura":"09:00:00","funcionamiento_hora_cierre":"21:00:00","local_telefono":"","local_lat":"-32.8264811","local_lng":"-71.2268265","funcionamiento_dia":"viernes"},{"fecha":"2024-09-27","local_id":"6345","fk_region":"8","fk_comuna":"157","fk_localidad":"176","local_nombre":"FARMACIA ALTO CACHAPOAL1","comuna_nombre":"PICHIDEGUA","localidad_nombre":"PICHIDEGUA","local_direccion":"IGNACIO CARRERA PINTO 1240, LOCAL 3","funcionamiento_hora_apertura":"08:00:00","funcionamiento_hora_cierre":"23:59:00","local_telefono":"","local_lat":"-34.36374729301897","local_lng":"-71.27316919940566","funcionamiento_dia":"viernes"},{"fecha":"2024-07-01","local_id":"6351","fk_region":"10","fk_comuna":"210","fk_localidad":"229","local_nombre":"FARMACIA CRUZ VERDE","comuna_nombre":"CONCEPCION","localidad_nombre":"COLLAO","local_direccion":"AV: ROOSEVELT N\u00b0 1694","funcionamiento_hora_apertura":"00:00:00","funcionamiento_hora_cierre":"23:59:00","local_telefono":"","local_lat":"-36.822028","local_lng":"-73.035950","funcionamiento_dia":"jueves"},{"fecha":"2024-09-27","local_id":"6370","fk_region":"12","fk_comuna":"287","fk_localidad":"306","local_nombre":"DR. SIMI","comuna_nombre":"LOS LAGOS","localidad_nombre":"LOS LAGOS","local_direccion":"BALMACEDA NORTE N\u00b0 25, LOS LAGOS","funcionamiento_hora_apertura":"09:00:00","funcionamiento_hora_cierre":"08:59:00","local_telefono":"+560","local_lat":"-39.861640","local_lng":"-72.815805","funcionamiento_dia":"viernes"},{"fecha":"2024-09-27","local_id":"6420","fk_region":"6","fk_comuna":"60","fk_localidad":"18","local_nombre":"PHARMACY Y DRUGSTORE","comuna_nombre":"LLAY LLAY","localidad_nombre":"LLAY - LLAY","local_direccion":"BALMACEDA N\u00ba1121","funcionamiento_hora_apertura":"09:00:00","funcionamiento_hora_cierre":"23:00:00","local_telefono":"+56978945320","local_lat":"-32.8410618","local_lng":"-70.9571869","funcionamiento_dia":"viernes"},{"fecha":"2024-09-27","local_id":"6592","fk_region":"7","fk_comuna":"116","fk_localidad":"135","local_nombre":"CRUZ VERDE","comuna_nombre":"PIRQUE","localidad_nombre":"PIRQUE","local_direccion":"CAMINO CARLOS VIAL INFANTE 25","funcionamiento_hora_apertura":"09:00:00","funcionamiento_hora_cierre":"21:00:00","local_telefono":"+56","local_lat":"-33.654566","local_lng":"-70.573071","funcionamiento_dia":"viernes"},{"fecha":"2024-09-27","local_id":"6599","fk_region":"8","fk_comuna":"164","fk_localidad":"183","local_nombre":"FARMACIA SU SALUD","comuna_nombre":"REQUINOA","localidad_nombre":"REQUINOA","local_direccion":"CARLOS NIENY 14, LOCAL 1","funcionamiento_hora_apertura":"08:00:00","funcionamiento_hora_cierre":"23:59:00","local_telefono":"+56","local_lat":"","local_lng":"","funcionamiento_dia":"viernes"},{"fecha":"2024-09-27","local_id":"6615","fk_region":"6","fk_comuna":"80","fk_localidad":"28","local_nombre":"CRUZ VERDE","comuna_nombre":"VI\u00d1A DEL MAR","localidad_nombre":"PLAN DE VI\u00d1A","local_direccion":"AV. LIBERTAD 1191","funcionamiento_hora_apertura":"09:00:00","funcionamiento_hora_cierre":"23:00:00","local_telefono":"+56226944000","local_lat":"-33.0110792","local_lng":"-71.54891959999999","funcionamiento_dia":"viernes"},{"fecha":"2024-09-27","local_id":"6639","fk_region":"10","fk_comuna":"242","fk_localidad":"261","local_nombre":"SANTA BARBARA","comuna_nombre":"SANTA BARBARA","localidad_nombre":"SANTA BARBARA - LOCALIDAD 1","local_direccion":"ARTURO PRAT 745, SANTA BARBARA","funcionamiento_hora_apertura":"08:00:00","funcionamiento_hora_cierre":"22:00:00","local_telefono":"+5688370360","local_lat":"-37.670206","local_lng":"-72.019197","funcionamiento_dia":"viernes"},{"fecha":"2024-09-27","local_id":"6640","fk_region":"6","fk_comuna":"59","fk_localidad":"17","local_nombre":"ECOFARMACIAS","comuna_nombre":"LIMACHE","localidad_nombre":"LIMACHE","local_direccion":"REPUBLICA 257","funcionamiento_hora_apertura":"09:00:00","funcionamiento_hora_cierre":"08:59:00","local_telefono":"+562270400","local_lat":"-33.0024593","local_lng":"-71.26568979999999","funcionamiento_dia":"viernes"},{"fecha":"2024-09-27","local_id":"6642","fk_region":"9","fk_comuna":"190","fk_localidad":"209","local_nombre":"FARMACIA EL SOL","comuna_nombre":"SAGRADA FAMILIA","localidad_nombre":"SAGRADA FAMILIA","local_direccion":"VALDIVIA N\u00ba157","funcionamiento_hora_apertura":"09:00:00","funcionamiento_hora_cierre":"22:00:00","local_telefono":"+5697930306","local_lat":"-34.9995734","local_lng":"-71.3811564","funcionamiento_dia":"viernes"},{"fecha":"2024-09-27","local_id":"6644","fk_region":"11","fk_comuna":"280","fk_localidad":"299","local_nombre":"FARMACIA DR. SALUD","comuna_nombre":"VILCUN","localidad_nombre":"VILCUN","local_direccion":"ARTURO PRAT N\u00b0 310","funcionamiento_hora_apertura":"09:00:00","funcionamiento_hora_cierre":"08:59:00","local_telefono":"","local_lat":"-38.670039989587615","local_lng":"-72.2233457558197","funcionamiento_dia":"viernes"},